timestamp,ATTITUDE.time_boot_ms,ATTITUDE.roll,ATTITUDE.pitch,ATTITUDE.yaw,ATTITUDE.rollspeed,ATTITUDE.pitchspeed,ATTITUDE.yawspeed,SERVO_OUTPUT_RAW.time_usec,SERVO_OUTPUT_RAW.port,SERVO_OUTPUT_RAW.servo1_raw,SERVO_OUTPUT_RAW.servo2_raw,SERVO_OUTPUT_RAW.servo3_raw,SERVO_OUTPUT_RAW.servo4_raw,SERVO_OUTPUT_RAW.servo5_raw,SERVO_OUTPUT_RAW.servo6_raw,SERVO_OUTPUT_RAW.servo7_raw,SERVO_OUTPUT_RAW.servo8_raw,SERVO_OUTPUT_RAW.servo9_raw,SERVO_OUTPUT_RAW.servo10_raw,SERVO_OUTPUT_RAW.servo11_raw,SERVO_OUTPUT_RAW.servo12_raw,SERVO_OUTPUT_RAW.servo13_raw,SERVO_OUTPUT_RAW.servo14_raw,SERVO_OUTPUT_RAW.servo15_raw,SERVO_OUTPUT_RAW.servo16_raw,NAV_CONTROLLER_OUTPUT.nav_roll,NAV_CONTROLLER_OUTPUT.nav_pitch,NAV_CONTROLLER_OUTPUT.nav_bearing,NAV_CONTROLLER_OUTPUT.target_bearing,NAV_CONTROLLER_OUTPUT.wp_dist,NAV_CONTROLLER_OUTPUT.alt_error,NAV_CONTROLLER_OUTPUT.aspd_error,NAV_CONTROLLER_OUTPUT.xtrack_error
1634343551.12804794,,,,,,,,200753,0,1500,1500,1000,1500,1000,1000,1000,1000,0,0,0,0,0,0,0,0,,,,,,,,
1634343551.14374804,,,,,,,,221578,0,1500,1500,1000,1500,1000,1000,1000,1000,0,0,0,0,0,0,0,0,,,,,,,,
1634343551.14621997,,,,,,,,242403,0,1500,1500,1000,1500,1000,1000,1000,1000,0,0,0,0,0,0,0,0,,,,,,,,
1634343551.14672804,,,,,,,,263228,0,1500,1500,1000,1500,1000,1000,1000,1000,0,0,0,0,0,0,0,0,,,,,,,,
1634343551.14927983,,,,,,,,284053,0,1500,1500,1000,1500,1000,1000,1000,1000,0,0,0,0,0,0,0,0,,,,,,,,
1634343551.14953589,,,,,,,,304878,0,1500,1500,1000,1500,1000,1000,1000,1000,0,0,0,0,0,0,0,0,,,,,,,,
1634343551.14978385,,,,,,,,325703,0,1500,1500,1000,1500,1000,1000,1000,1000,0,0,0,0,0,0,0,0,,,,,,,,
1634343551.15004802,,,,,,,,346528,0,1500,1500,1000,1500,1000,1000,1000,1000,0,0,0,0,0,0,0,0,,,,,,,,
1634343551.15032387,,,,,,,,367353,0,1500,1500,1000,1500,1000,1000,1000,1000,0,0,0,0,0,0,0,0,,,,,,,,
1634343551.15057993,,,,,,,,388178,0,1500,1500,1000,1500,1000,1000,1000,1000,0,0,0,0,0,0,0,0,,,,,,,,
1634343551.15088391,,,,,,,,409003,0,1500,1500,1000,1500,1000,1000,1000,1000,0,0,0,0,0,0,0,0,,,,,,,,
1634343551.15114403,,,,,,,,429828,0,1500,1500,1000,1500,1000,1000,1000,1000,0,0,0,0,0,0,0,0,,,,,,,,
1634343551.15284395,,,,,,,,450653,0,1500,1500,1000,1500,1000,1000,1000,1000,0,0,0,0,0,0,0,0,,,,,,,,
1634343551.15308404,,,,,,,,471478,0,1500,1500,1000,1500,1000,1000,1000,1000,0,0,0,0,0,0,0,0,,,,,,,,
1634343551.15331197,,,,,,,,492303,0,1500,1500,1000,1500,1000,1000,1000,1000,0,0,0,0,0,0,0,0,,,,,,,,
1634343551.15353990,,,,,,,,513128,0,1500,1500,1000,1500,1000,1000,1000,1000,0,0,0,0,0,0,0,0,,,,,,,,
1634343551.16432405,,,,,,,,533953,0,1500,1500,1000,1500,1000,1000,1000,1000,0,0,0,0,0,0,0,0,,,,,,,,
1634343551.16645598,,,,,,,,554778,0,1500,1500,1000,1500,1000,1000,1000,1000,0,0,0,0,0,0,0,0,,,,,,,,
1634343551.16674399,,,,,,,,575603,0,1500,1500,1000,1500,1000,1000,1000,1000,0,0,0,0,0,0,0,0,,,,,,,,
1634343551.17789197,,,,,,,,596428,0,1500,1500,1000,1500,1000,1000,1000,1000,0,0,0,0,0,0,0,0,,,,,,,,
1634343551.17821598,,,,,,,,617253,0,1500,1500,1000,1500,1000,1000,1000,1000,0,0,0,0,0,0,0,0,,,,,,,,
1634343551.17849183,,,,,,,,638078,0,1500,1500,1000,1500,1000,1000,1000,1000,0,0,0,0,0,0,0,0,,,,,,,,
1634343551.17884398,,,,,,,,658903,0,1500,1500,1000,1500,1000,1000,1000,1000,0,0,0,0,0,0,0,0,,,,,,,,
1634343551.18569183,,,,,,,,679728,0,1500,1500,1000,1500,1000,1000,1000,1000,0,0,0,0,0,0,0,0,,,,,,,,
1634343551.18598390,,,,,,,,700553,0,1500,1500,1000,1500,1000,1000,1000,1000,0,0,0,0,0,0,0,0,,,,,,,,
1634343551.18622804,,,,,,,,721378,0,1500,1500,1000,1500,1000,1000,1000,1000,0,0,0,0,0,0,0,0,,,,,,,,
1634343551.18651581,,,,,,,,742203,0,1500,1500,1000,1500,1000,1000,1000,1000,0,0,0,0,0,0,0,0,,,,,,,,
1634343551.19351602,,,,,,,,763028,0,1500,1500,1000,1500,1000,1000,1000,1000,0,0,0,0,0,0,0,0,,,,,,,,
1634343551.19380403,,,,,,,,783853,0,1500,1500,1000,1500,1000,1000,1000,1000,0,0,0,0,0,0,0,0,,,,,,,,
1634343551.19411588,,,,,,,,804678,0,1500,1500,1000,1500,1000,1000,1000,1000,0,0,0,0,0,0,0,0,,,,,,,,
1634343551.19437599,,,,,,,,825503,0,1500,1500,1000,1500,1000,1000,1000,1000,0,0,0,0,0,0,0,0,,,,,,,,
1634343551.20262790,,,,,,,,846328,0,1500,1500,1000,1500,1000,1000,1000,1000,0,0,0,0,0,0,0,0,,,,,,,,
1634343551.20298386,,,,,,,,867153,0,1500,1500,1000,1500,1000,1000,1000,1000,0,0,0,0,0,0,0,0,,,,,,,,
1634343551.20429182,,,,,,,,887978,0,1500,1500,1000,1500,1000,1000,1000,1000,0,0,0,0,0,0,0,0,,,,,,,,
1634343551.20452785,,,,,,,,908803,0,1500,1500,1000,1500,1000,1000,1000,1000,0,0,0,0,0,0,0,0,,,,,,,,
1634343551.20475984,,,,,,,,929628,0,1500,1500,1000,1500,1000,1000,1000,1000,0,0,0,0,0,0,0,0,,,,,,,,
1634343551.20499182,,,,,,,,950453,0,1500,1500,1000,1500,1000,1000,1000,1000,0,0,0,0,0,0,0,0,,,,,,,,
1634343551.20523190,,,,,,,,971278,0,1500,1500,1000,1500,1000,1000,1000,1000,0,0,0,0,0,0,0,0,,,,,,,,
1634343551.23131585,,,,,,,,992103,0,1500,1500,1000,1500,1000,1000,1000,1000,0,0,0,0,0,0,0,0,,,,,,,,
1634343551.23256803,,,,,,,,1012928,0,1500,1500,1000,1500,1000,1000,1000,1000,0,0,0,0,0,0,0,0,,,,,,,,
1634343551.23282790,,,,,,,,1033753,0,1500,1500,1000,1500,1000,1000,1000,1000,0,0,0,0,0,0,0,0,,,,,,,,
1634343551.23759198,,,,,,,,1054578,0,1500,1500,1000,1500,1000,1000,1000,1000,0,0,0,0,0,0,0,0,,,,,,,,
1634343551.23895597,,,,,,,,1075403,0,1500,1500,1000,1500,1000,1000,1000,1000,0,0,0,0,0,0,0,0,,,,,,,,
1634343551.23921990,,,,,,,,1096228,0,1500,1500,1000,1500,1000,1000,1000,1000,0,0,0,0,0,0,0,0,,,,,,,,
1634343551.23949981,,,,,,,,1117053,0,1500,1500,1000,1500,1000,1000,1000,1000,0,0,0,0,0,0,0,0,,,,,,,,
1634343551.23973584,,,,,,,,1137878,0,1500,1500,1000,1500,1000,1000,1000,1000,0,0,0,0,0,0,0,0,,,,,,,,
1634343551.24134803,,,,,,,,1158703,0,1500,1500,1000,1500,1000,1000,1000,1000,0,0,0,0,0,0,0,0,,,,,,,,
1634343551.24161196,,,,,,,,1179528,0,1500,1500,1000,1500,1000,1000,1000,1000,0,0,0,0,0,0,0,0,,,,,,,,
1634343551.24209189,,,,,,,,1200353,0,1500,1500,1000,1500,1000,1000,1000,1000,0,0,0,0,0,0,0,0,,,,,,,,
1634343551.24237990,,,,,,,,1221178,0,1500,1500,1000,1500,1000,1000,1000,1000,0,0,0,0,0,0,0,0,,,,,,,,
1634343551.24389982,,,,,,,,1242003,0,1500,1500,1000,1500,1000,1000,1000,1000,0,0,0,0,0,0,0,0,,,,,,,,
1634343551.24416399,,,,,,,,1262828,0,1500,1500,1000,1500,1000,1000,1000,1000,0,0,0,0,0,0,0,0,,,,,,,,
1634343551.24441195,,,,,,,,1283653,0,1500,1500,1000,1500,1000,1000,1000,1000,0,0,0,0,0,0,0,0,,,,,,,,
1634343551.24468398,,,,,,,,1304478,0,1500,1500,1000,1500,1000,1000,1000,1000,0,0,0,0,0,0,0,0,,,,,,,,
1634343551.24648404,,,,,,,,1325303,0,1500,1500,1000,1500,1000,1000,1000,1000,0,0,0,0,0,0,0,0,,,,,,,,
1634343551.24675989,,,,,,,,1346128,0,1500,1500,1000,1500,1000,1000,1000,1000,0,0,0,0,0,0,0,0,,,,,,,,
1634343551.24699187,,,,,,,,1366953,0,1500,1500,1000,1500,1000,1000,1000,1000,0,0,0,0,0,0,0,0,,,,,,,,
1634343551.24734402,,,,,,,,1387778,0,1500,1500,1000,1500,1000,1000,1000,1000,0,0,0,0,0,0,0,0,,,,,,,,
1634343551.24921203,,,,,,,,1408603,0,1500,1500,1000,1500,1000,1000,1000,1000,0,0,0,0,0,0,0,0,,,,,,,,
1634343551.24969983,,,,,,,,1429428,0,1500,1500,1000,1500,1000,1000,1000,1000,0,0,0,0,0,0,0,0,,,,,,,,
1634343551.25003195,,,,,,,,1450253,0,1500,1500,1000,1500,1000,1000,1000,1000,0,0,0,0,0,0,0,0,,,,,,,,
1634343551.25036001,,,,,,,,1471078,0,1500,1500,1000,1500,1000,1000,1000,1000,0,0,0,0,0,0,0,0,,,,,,,,
1634343551.25062394,,,,,,,,1491903,0,1500,1500,1000,1500,1000,1000,1000,1000,0,0,0,0,0,0,0,0,,,,,,,,
1634343551.25085998,,,,,,,,1512728,0,1500,1500,1000,1500,1000,1000,1000,1000,0,0,0,0,0,0,0,0,,,,,,,,
1634343551.25115585,,,,,,,,1533553,0,1500,1500,1000,1500,1000,1000,1000,1000,0,0,0,0,0,0,0,0,,,,,,,,
1634343551.25247192,,,,,,,,1554378,0,1500,1500,1000,1500,1000,1000,1000,1000,0,0,0,0,0,0,0,0,,,,,,,,
1634343551.25919604,,,,,,,,1575203,0,1500,1500,1000,1500,1000,1000,1000,1000,0,0,0,0,0,0,0,0,,,,,,,,
1634343551.25946784,,,,,,,,1596028,0,1500,1500,1000,1500,1000,1000,1000,1000,0,0,0,0,0,0,0,0,,,,,,,,
1634343551.25971603,,,,,,,,1616853,0,1500,1500,1000,1500,1000,1000,1000,1000,0,0,0,0,0,0,0,0,,,,,,,,
1634343551.25997996,,,,,,,,1637678,0,1500,1500,1000,1500,1000,1000,1000,1000,0,0,0,0,0,0,0,0,,,,,,,,
1634343551.26395202,,,,,,,,1658503,0,1500,1500,1000,1500,1000,1000,1000,1000,0,0,0,0,0,0,0,0,,,,,,,,
1634343551.26423192,,,,,,,,1679328,0,1500,1500,1000,1500,1000,1000,1000,1000,0,0,0,0,0,0,0,0,,,,,,,,
1634343551.26448798,,,,,,,,1700153,0,1500,1500,1000,1500,1000,1000,1000,1000,0,0,0,0,0,0,0,0,,,,,,,,
1634343551.26975203,1800,-0.00037689044256694615,8.424223779002205e-05,8.287303899123799e-06,-2.237020271422807e-05,-8.291758422274143e-05,5.721473280573264e-05,,,,,,,,,,,,,,,,,,,,,,,,,,
1634343551.27516389,,,,,,,,1800946,0,1500,1500,1000,1500,0,0,0,0,0,0,0,0,0,0,0,0,,,,,,,,
1634343551.28854394,2040,-0.0001827749947551638,-0.0009408541955053806,-0.34230899810791016,1.5588053429382853e-05,0.00010051373828900978,9.353439236292616e-05,,,,,,,,,,,,,,,,,,,,,,,,,,
1634343551.29298401,,,,,,,,2040850,0,1500,1500,1000,1500,0,0,0,0,0,0,0,0,0,0,0,0,,,,,,,,
1634343552.23931599,3040,0.000247656338615343,-0.0008361221407540143,-0.3416597843170166,0.0001752457901602611,0.00014571224164683372,8.993248047772795e-05,,,,,,,,,,,,,,,,,,,,,,,,,,
1634343552.24223995,,,,,,,,3040450,0,1500,1500,1000,1500,0,0,0,0,0,0,0,0,0,0,0,0,,,,,,,,
1634343553.05586386,3860,0.0001329411315964535,0.00047073702444322407,-0.34297263622283936,3.556182548436482e-07,0.00016648277232889086,0.00010509174899198115,,,,,,,,,,,,,,,,,,,,,,,,,,
1634343553.05872798,,,,,,,,3860955,0,1500,1500,1000,1500,0,0,0,0,0,0,0,0,0,0,0,0,,,,,,,,
1634343553.31089997,4120,0.0001154126730398275,0.00025479309260845184,-0.34314265847206116,0.00013551986194215715,1.9399036318645813e-05,9.595837764209136e-05,,,,,,,,,,,,,,,,,,,,,,,,,,
1634343553.31350398,,,,,,,,4120851,0,1500,1500,1000,1500,0,0,0,0,0,0,0,0,0,0,0,0,,,,,,,,
1634343553.55087185,4360,0.00012783291458617896,4.8489513574168086e-05,-0.3432121276855469,5.330165322448011e-07,6.540268805110827e-05,5.5569300457136706e-05,,,,,,,,,,,,,,,,,,,,,,,,,,
1634343553.55363989,,,,,,,,4360755,0,1500,1500,1000,1500,0,0,0,0,0,0,0,0,0,0,0,0,,,,,,,,
1634343553.80822396,4620,0.00014925365394447,-0.0001044170930981636,-0.34322333335876465,0.00013608696463052183,0.0001695843820925802,0.00010305272735422477,,,,,,,,,,,,,,,,,,,,,,,,,,
1634343553.81103587,,,,,,,,4620651,0,1500,1500,1000,1500,0,0,0,0,0,0,0,0,0,0,0,0,,,,,,,,
1634343554.04990387,4860,0.00016459527250844985,-0.00015954150876495987,-0.34320467710494995,5.954354128334671e-05,6.374798249453306e-05,0.00014855997869744897,,,,,,,,,,,,,,,,,,,,,,,,,,
1634343554.05269599,,,,,,,,4860555,0,1500,1500,1000,1500,0,0,0,0,0,0,0,0,0,0,0,0,,,,,,,,
1634343554.31160784,5120,0.00017024960834532976,-0.00016436965961474925,-0.3431899845600128,9.918748401105404e-05,-4.9691454478306696e-05,1.0408464731881395e-05,,,,,,,,,,,,,,,,,,,,,,,,,,
1634343554.31444383,,,,,,,,5120451,0,1500,1500,1000,1500,0,0,0,0,0,0,0,0,0,0,0,0,,,,,,,,
1634343554.55137181,5360,0.00016071002755779773,-0.00013688841136172414,-0.3431907296180725,-4.334003733674763e-06,0.00013064243830740452,-4.684827945311554e-05,,,,,,,,,,,,,,,,,,,,,,,,,,
1634343554.55415988,,,,,,,,5360355,0,1500,1500,1000,1500,0,0,0,0,0,0,0,0,0,0,0,0,,,,,,,,
1634343554.80879998,5620,0.00014556355017703027,-0.00010165691492147744,-0.3431890606880188,-6.669096910627559e-05,9.447874617762864e-05,2.4518021746189333e-05,,,,,,,,,,,,,,,,,,,,,,,,,,
1634343554.81184793,,,,,,,,5620251,0,1500,1500,1000,1500,0,0,0,0,0,0,0,0,0,0,0,0,,,,,,,,
1634343555.05031586,5860,0.00013224036956671625,-6.0093447245890275e-05,-0.3431846499443054,-1.1670544154185336e-05,0.00016587569552939385,2.9176404495956376e-05,,,,,,,,,,,,,,,,,,,,,,,,,,
1634343555.05350804,,,,,,,,5860155,0,1500,1500,1000,1500,0,0,0,0,0,0,0,0,0,0,0,0,,,,,,,,
1634343555.31266403,6120,0.00012397639511618763,-3.4278855309821665e-05,-0.34318745136260986,3.496522185741924e-05,-7.193174951680703e-06,0.0001256579125765711,,,,,,,,,,,,,,,,,,,,,,,,,,
1634343555.31548786,,,,,,,,6120884,0,1500,1500,1000,1500,0,0,0,0,0,0,0,0,0,0,0,0,,,,,,,,
1634343555.54856801,6360,0.00014994954108260572,-1.681461071711965e-05,-0.3431921601295471,1.368837729387451e-05,0.00016351233352907002,-8.66051996126771e-05,,,,,,,,,,,,,,,,,,,,,,,,,,
1634343555.55144000,,,,,,,,6360788,0,1500,1500,1000,1500,0,0,0,0,0,0,0,0,0,0,0,0,,,,,,,,
1634343555.80771589,6620,0.00019947583496104926,-1.4921424735803157e-05,-0.3432103991508484,8.340407657669857e-05,3.415779792703688e-05,-4.77562534797471e-05,,,,,,,,,,,,,,,,,,,,,,,,,,
1634343555.81047988,,,,,,,,6620684,0,1500,1500,1000,1500,0,0,0,0,0,0,0,0,0,0,0,0,,,,,,,,
1634343556.05121994,6860,0.0002263853239128366,-2.9212683330115397e-06,-0.3432598412036896,0.00019739201525226235,8.472932677250355e-05,9.461208537686616e-05,,,,,,,,,,,,,,,,,,,,,,,,,,
1634343556.05407596,,,,,,,,6860588,0,1500,1500,1000,1500,0,0,0,0,0,0,0,0,0,0,0,0,,,,,,,,
1634343556.30839992,7120,0.00022474034631159157,3.2047100830823183e-06,-0.3433016836643219,0.00019894298748113215,0.00016542179218959063,0.0001219235491589643,,,,,,,,,,,,,,,,,,,,,,,,,,
1634343556.31102800,,,,,,,,7120484,0,1500,1500,1000,1500,0,0,0,0,0,0,0,0,0,0,0,0,,,,,,,,
1634343556.54745603,7360,0.00022902528871782124,2.4100809241645038e-05,-0.343332976102829,7.023911166470498e-05,8.049413736443967e-05,0.00014135974925011396,,,,,,,,,,,,,,,,,,,,,,,,,,
1634343556.55003190,,,,,,,,7360388,0,1500,1500,1000,1500,0,0,0,0,0,0,0,0,0,0,0,0,,,,,,,,
1634343556.81151581,7620,0.0002191616513300687,2.4560698875575326e-05,-0.3433628976345062,9.748699085321277e-05,0.0001770654780557379,7.429096876876429e-05,,,,,,,,,,,,,,,,,,,,,,,,,,
1634343556.81430387,,,,,,,,7620284,0,1500,1500,1000,1500,0,0,0,0,0,0,0,0,0,0,0,0,,,,,,,,
1634343557.05080795,7860,0.00021136309078428894,-1.1410411389078945e-05,-0.34337201714515686,0.0002050308248726651,6.653591844951734e-05,6.157799361972138e-05,,,,,,,,,,,,,,,,,,,,,,,,,,
1634343557.05343199,,,,,,,,7860188,0,1500,1500,1000,1500,0,0,0,0,0,0,0,0,0,0,0,0,,,,,,,,
1634343557.30815601,8120,0.00018225127132609487,-9.24205596675165e-06,-0.343352735042572,7.424792420351878e-05,7.64569194871001e-05,0.00018001519492827356,,,,,,,,,,,,,,,,,,,,,,,,,,
1634343557.31158400,,,,,,,,8120917,0,1500,1500,1000,1500,0,0,0,0,0,0,0,0,0,0,0,0,,,,,,,,
1634343557.54833198,8360,0.0001799123565433547,-1.306136528000934e-05,-0.27856355905532837,0.00011530841584317386,0.0001337449939455837,-2.407586362096481e-05,,,,,,,,,,,,,,,,,,,,,,,,,,
1634343557.55195594,,,,,,,,8360821,0,1500,1500,1000,1500,0,0,0,0,0,0,0,0,0,0,0,0,,,,,,,,
1634343557.80893588,8620,0.00017954755458049476,-2.8700840630335733e-05,-0.22952669858932495,9.319536911789328e-05,8.035784412641078e-05,0.00023319822503253818,,,,,,,,,,,,,,,,,,,,,,,,,,
1634343557.81182003,,,,,,,,8620717,0,1500,1500,1000,1500,0,0,0,0,0,0,0,0,0,0,0,0,,,,,,,,
1634343558.05135202,8860,0.00018093132530339062,-1.909469392558094e-05,-0.1979762613773346,0.00020393838349264115,0.000288846786133945,0.00012288830475881696,,,,,,,,,,,,,,,,,,,,,,,,,,
1634343558.07965183,,,,,,,,8860621,0,1500,1500,1000,1500,0,0,0,0,0,0,0,0,0,0,0,0,,,,,,,,
1634343558.30860400,9120,0.00019542558584362268,-7.290584107977338e-06,-0.1741953045129776,0.00013666687300428748,0.00013625989959109575,0.00015748001169413328,,,,,,,,,,,,,,,,,,,,,,,,,,
1634343558.31154394,,,,,,,,9120517,0,1500,1500,1000,1500,0,0,0,0,0,0,0,0,0,0,0,0,,,,,,,,
1634343558.55491590,9360,0.000212143175303936,-8.77501406648662e-06,-0.158944770693779,0.0003322047123219818,-8.554720261599869e-05,0.00016056624008342624,,,,,,,,,,,,,,,,,,,,,,,,,,
1634343558.55787182,,,,,,,,9360421,0,1500,1500,1000,1500,0,0,0,0,0,0,0,0,0,0,0,0,,,,,,,,
1634343558.81263590,9620,0.00020807645341847092,-7.578241820738185e-06,-0.14747284352779388,0.00016566373233217746,0.00015486804477404803,0.00022850820096209645,,,,,,,,,,,,,,,,,,,,,,,,,,
1634343558.81571984,,,,,,,,9620317,0,1500,1500,1000,1500,0,0,0,0,0,0,0,0,0,0,0,0,,,,,,,,
1634343559.04850388,9860,0.00020786358800251037,-2.1828163880854845e-05,-0.1401107758283615,0.0002515844244044274,9.778738603927195e-05,3.783468127949163e-05,,,,,,,,,,,,,,,,,,,,,,,,,,
1634343559.05153990,,,,,,,,9860221,0,1500,1500,1000,1500,0,0,0,0,0,0,0,0,0,0,0,0,,,,,,,,
1634343559.31145191,10120,0.00020688347285613418,-1.5883937521721236e-05,-0.1345415860414505,0.00018344295676797628,0.00013760512229055166,1.101350790122524e-06,,,,,,,,,,,,,,,,,,,,,,,,,,
1634343559.31517601,,,,,,,,10120950,0,1500,1500,1000,1500,0,0,0,0,0,0,0,0,0,0,0,0,,,,,,,,
1634343559.54865599,10360,0.0002138449199264869,5.9474032241269015e-06,-0.13099373877048492,0.00023299628810491413,0.00020598061382770538,8.044649439398199e-05,,,,,,,,,,,,,,,,,,,,,,,,,,
1634343559.55508804,,,,,,,,10360854,0,1500,1500,1000,1500,0,0,0,0,0,0,0,0,0,0,0,0,,,,,,,,
1634343559.81083989,10620,0.00023120600963011384,1.691360375843942e-05,-0.12832380831241608,9.7202806500718e-05,9.694670734461397e-05,7.417210144922137e-05,,,,,,,,,,,,,,,,,,,,,,,,,,
1634343559.81444001,,,,,,,,10620750,0,1500,1500,1000,1500,0,0,0,0,0,0,0,0,0,0,0,0,,,,,,,,
1634343560.05263186,10860,0.0002248219825560227,5.3986423154128715e-06,-0.12661562860012054,0.00015784704010002315,0.00012612361751962453,0.00025487542734481394,,,,,,,,,,,,,,,,,,,,,,,,,,
1634343560.05577588,,,,,,,,10860654,0,1500,1500,1000,1500,0,0,0,0,0,0,0,0,0,0,0,0,,,,,,,,
1634343560.31069183,11120,0.00023081761901266873,-7.91983438830357e-06,-0.12532822787761688,0.00013428120291791856,8.623317262390628e-05,0.00013890565605834126,,,,,,,,,,,,,,,,,,,,,,,,,,
1634343560.31339598,,,,,,,,11120550,0,1500,1500,1000,1500,0,0,0,0,0,0,0,0,0,0,0,0,,,,,,,,
1634343560.54813194,11360,0.0002268445969093591,-1.0522582670091651e-05,-0.12450580298900604,0.00021323584951460361,0.00020598208357114345,0.00011133574298582971,,,,,,,,,,,,,,,,,,,,,,,,,,
1634343560.55101204,,,,,,,,11360454,0,1500,1500,1000,1500,0,0,0,0,0,0,0,0,0,0,0,0,,,,,,,,
1634343560.80981183,11620,0.00021827747696079314,-1.753398282744456e-05,-0.12387951463460922,0.00017750672122929245,0.00013924093218520284,0.0001682896981947124,,,,,,,,,,,,,,,,,,,,,,,,,,
1634343560.81285191,,,,,,,,11620350,0,1500,1500,1000,1500,0,0,0,0,0,0,0,0,0,0,0,0,,,,,,,,
1634343561.05032396,11860,0.00021492164523806423,-5.3022463362140115e-06,-0.12332025915384293,7.052159344311804e-05,5.416368367150426e-05,0.0010174483759328723,,,,,,,,,,,,,,,,,,,,,,,,,,
1634343561.05327582,,,,,,,,11860254,0,1500,1500,1000,1500,0,0,0,0,0,0,0,0,0,0,0,0,,,,,,,,
1634343561.30955601,12120,0.00021935162658337504,-3.6583519431587774e-06,-0.12288898229598999,0.000286934373434633,0.00017957977252081037,0.0008947252063080668,,,,,,,,,,,,,,,,,,,,,,,,,,
1634343561.31246781,,,,,,,,12120150,0,1500,1500,1000,1500,0,0,0,0,0,0,0,0,0,0,0,0,,,,,,,,
1634343561.55253601,12360,0.00023323902860283852,7.585394996567629e-06,-0.12262305617332458,0.00019821751629933715,0.00011096974776592106,0.000827711308375001,,,,,,,,,,,,,,,,,,,,,,,,,,
1634343561.55582786,,,,,,,,12360887,0,1500,1500,1000,1500,0,0,0,0,0,0,0,0,0,0,0,0,,,,,,,,
1634343561.80941582,12620,0.00023451325250789523,1.6038573448895477e-05,-0.12242655456066132,0.00014122220454737544,0.0001959813671419397,0.0009635965107008815,,,,,,,,,,,,,,,,,,,,,,,,,,
1634343561.81244397,,,,,,,,12620783,0,1500,1500,1000,1500,0,0,0,0,0,0,0,0,0,0,0,0,,,,,,,,
1634343562.05006003,12860,0.0002477671660017222,9.61174737312831e-06,-0.12230192869901657,0.0003123638452962041,0.00014492990158032626,0.0009595006704330444,,,,,,,,,,,,,,,,,,,,,,,,,,
1634343562.05307198,,,,,,,,12860687,0,1500,1500,1000,1500,0,0,0,0,0,0,0,0,0,0,0,0,,,,,,,,
1634343562.31300402,13120,0.00025103605003096163,-5.465890353661962e-06,-0.12221144884824753,0.00010476599709363654,0.0001313322427449748,0.0008731350535526872,,,,,,,,,,,,,,,,,,,,,,,,,,
1634343562.31599188,,,,,,,,13120583,0,1500,1500,1000,1500,0,0,0,0,0,0,0,0,0,0,0,0,,,,,,,,
1634343562.55325985,13360,0.0002416177449049428,-6.931205120963568e-07,-0.12215568870306015,0.00012608421093318611,0.00016428605886176229,0.00098346546292305,,,,,,,,,,,,,,,,,,,,,,,,,,
1634343562.55636001,,,,,,,,13360487,0,1500,1500,1000,1500,0,0,0,0,0,0,0,0,0,0,0,0,,,,,,,,
1634343562.80991983,13620,0.00022776611149311066,6.266473064897582e-06,-0.12210049480199814,0.0002525848394725472,0.000119894313684199,0.0010369782103225589,,,,,,,,,,,,,,,,,,,,,,,,,,
1634343562.81282401,,,,,,,,13620383,0,1500,1500,1000,1500,0,0,0,0,0,0,0,0,0,0,0,0,,,,,,,,
1634343563.05225992,13860,0.0002259856992168352,1.4846833437331952e-05,-0.12205957621335983,7.173819903982803e-05,7.570563320768997e-05,0.0010363159235566854,,,,,,,,,,,,,,,,,,,,,,,,,,
1634343563.05573201,,,,,,,,13860287,0,1500,1500,1000,1500,0,0,0,0,0,0,0,0,0,0,0,0,,,,,,,,
1634343563.30829191,14120,0.00022717499814461917,3.176714017172344e-05,-0.12203407287597656,0.00022058248578105122,0.0001500889047747478,0.0008755376911722124,,,,,,,,,,,,,,,,,,,,,,,,,,
1634343563.31213999,,,,,,,,14120183,0,1500,1500,1000,1500,0,0,0,0,0,0,0,0,0,0,0,0,,,,,,,,
1634343563.55130792,14360,0.00023024794063530862,3.464018664089963e-05,-0.12202855944633484,0.00019708616309799254,0.00021445135644171387,0.0007903592195361853,,,,,,,,,,,,,,,,,,,,,,,,,,
1634343563.55461597,,,,,,,,14360920,0,1500,1500,1000,1500,0,0,0,0,0,0,0,0,0,0,0,0,,,,,,,,
1634343563.80963182,14620,0.0002360490325372666,4.6847257181070745e-05,-0.12200431525707245,0.00019094526942353696,0.00017995198140852153,0.0007731647929176688,,,,,,,,,,,,,,,,,,,,,,,,,,
1634343563.81255984,,,,,,,,14620816,0,1500,1500,1000,1500,0,0,0,0,0,0,0,0,0,0,0,0,,,,,,,,
1634343564.04910398,14860,0.00024059311544988304,8.322059875354171e-05,-0.12201879173517227,0.00024864322040230036,0.0003251032321713865,0.0009195589809678495,,,,,,,,,,,,,,,,,,,,,,,,,,
1634343564.05206394,,,,,,,,14860720,0,1500,1500,1000,1500,0,0,0,0,0,0,0,0,0,0,0,0,,,,,,,,
1634343564.31200790,15120,0.0002462750708218664,7.819972961442545e-05,-0.12203133851289749,0.00025024364003911614,0.00014443541294895113,0.001033277832902968,,,,,,,,,,,,,,,,,,,,,,,,,,
1634343564.31483984,,,,,,,,15120616,0,1500,1500,1000,1500,0,0,0,0,0,0,0,0,0,0,0,0,,,,,,,,
1634343564.55339599,15360,0.00024550623493269086,5.679106470779516e-05,-0.12203650921583176,0.0002745036326814443,0.0002333575248485431,0.0010197621304541826,,,,,,,,,,,,,,,,,,,,,,,,,,
1634343564.55653191,,,,,,,,15360520,0,1500,1500,1000,1500,0,0,0,0,0,0,0,0,0,0,0,0,,,,,,,,
1634343564.80980802,15620,0.00024931461666710675,5.484186112880707e-05,-0.12203098833560944,0.00014859571820124984,0.0002810930600389838,0.00103086419403553,,,,,,,,,,,,,,,,,,,,,,,,,,
1634343564.81286788,,,,,,,,15620416,0,1500,1500,1000,1500,0,0,0,0,0,0,0,0,0,0,0,0,,,,,,,,
1634343565.05003595,15860,0.00025537062902003527,5.238697485765442e-05,-0.12202818691730499,0.0002346881083212793,0.00027295947074890137,0.0009505318012088537,,,,,,,,,,,,,,,,,,,,,,,,,,
1634343565.05276394,,,,,,,,15860320,0,1500,1500,1000,1500,0,0,0,0,0,0,0,0,0,0,0,0,,,,,,,,
1634343565.31258798,16120,0.00024108393699862063,4.571297540678643e-05,-0.12202461063861847,0.0001648127072257921,0.00024266574473585933,0.0010139490477740765,,,,,,,,,,,,,,,,,,,,,,,,,,
1634343565.31543589,,,,,,,,16120216,0,1500,1500,1000,1500,0,0,0,0,0,0,0,0,0,0,0,0,,,,,,,,
1634343565.54998803,16360,0.00023711136600468308,3.7653437175322324e-05,-0.12201936542987823,0.00012193850125186145,0.00027581973699852824,0.0009807416936382651,,,,,,,,,,,,,,,,,,,,,,,,,,
1634343565.55298400,,,,,,,,16360953,0,1500,1500,1000,1500,0,0,0,0,0,0,0,0,0,0,0,0,,,,,,,,
1634343565.81082392,16620,0.0002457964001223445,2.1230680431472138e-05,-0.12200460582971573,0.0004157467919867486,1.4735696822754107e-05,0.0009776437655091286,,,,,,,,,,,,,,,,,,,,,,,,,,
1634343565.81379199,,,,,,,,16620849,0,1500,1500,1000,1500,0,0,0,0,0,0,0,0,0,0,0,0,,,,,,,,
1634343566.05147195,16860,0.0002513789222575724,4.1213712393073365e-05,-0.12201894819736481,0.0002756550966296345,0.00016313596279360354,0.0008568369667045772,,,,,,,,,,,,,,,,,,,,,,,,,,
1634343566.05447984,,,,,,,,16860753,0,1500,1500,1000,1500,0,0,0,0,0,0,0,0,0,0,0,0,,,,,,,,
1634343566.30882001,17120,0.0002445489226374775,7.112652383511886e-05,-0.12202095985412598,0.00028678911621682346,0.0002707964740693569,0.0009196789469569921,,,,,,,,,,,,,,,,,,,,,,,,,,
1634343566.31158781,,,,,,,,17120649,0,1500,1500,1000,1500,0,0,0,0,0,0,0,0,0,0,0,0,,,,,,,,
1634343566.54966402,17360,0.0002527040778659284,9.869609493762255e-05,-0.12202121317386627,0.00034028259688057005,0.00033770097070373595,0.0009281576494686306,,,,,,,,,,,,,,,,,,,,,,,,,,
1634343566.55269194,,,,,,,,17360553,0,1500,1500,1000,1500,0,0,0,0,0,0,0,0,0,0,0,0,,,,,,,,
1634343566.80975199,17620,0.00027849938487634063,9.720622620079666e-05,-0.12204097956418991,0.0003036087437067181,0.0001234633818967268,0.0008614826365374029,,,,,,,,,,,,,,,,,,,,,,,,,,
1634343566.81281590,,,,,,,,17620449,0,1500,1500,1000,1500,0,0,0,0,0,0,0,0,0,0,0,0,,,,,,,,
1634343567.05009604,17860,0.0002901061961892992,8.830584556562826e-05,-0.12207455188035965,0.00025551978615112603,0.00013454671716317534,0.0009153778082691133,,,,,,,,,,,,,,,,,,,,,,,,,,
1634343567.05316401,,,,,,,,17860353,0,1500,1500,1000,1500,0,0,0,0,0,0,0,0,0,0,0,0,,,,,,,,
1634343567.30941987,18120,0.00030151792452670634,6.856664549559355e-05,-0.12209378927946091,0.00024757711798883975,0.00032081431709229946,0.0009398964466527104,,,,,,,,,,,,,,,,,,,,,,,,,,
1634343567.31244802,,,,,,,,18120249,0,1500,1500,1000,1500,0,0,0,0,0,0,0,0,0,0,0,0,,,,,,,,
1634343567.54975986,18360,0.0003075501008424908,3.392418511793949e-05,-0.12211170792579651,0.00012381574197206646,0.00011552848445717245,0.0009471786324866116,,,,,,,,,,,,,,,,,,,,,,,,,,
1634343567.55266786,,,,,,,,18360153,0,1500,1500,1000,1500,0,0,0,0,0,0,0,0,0,0,0,0,,,,,,,,
1634343567.81016803,18620,0.00028559990460053086,1.9417684598010965e-05,-0.12211748957633972,0.00029716218705289066,0.0002614710247144103,0.000837062019854784,,,,,,,,,,,,,,,,,,,,,,,,,,
1634343567.81341982,,,,,,,,18620882,0,1500,1500,1000,1500,0,0,0,0,0,0,0,0,0,0,0,0,,,,,,,,
1634343568.05088401,18860,0.0002894483332056552,3.127367017441429e-05,-0.12209726125001907,0.00023617259284947067,0.00032719215960241854,0.000955715193413198,,,,,,,,,,,,,,,,,,,,,,,,,,
1634343568.05383992,,,,,,,,18860786,0,1500,1500,1000,1500,0,0,0,0,0,0,0,0,0,0,0,0,,,,,,,,
1634343568.30983996,19120,0.0002798504428938031,4.8719419282861054e-05,-0.12209918349981308,0.0003515593707561493,0.0002657115110196173,0.0009018236887641251,,,,,,,,,,,,,,,,,,,,,,,,,,
1634343568.31287599,,,,,,,,19120682,0,1500,1500,1000,1500,0,0,0,0,0,0,0,0,0,0,0,0,,,,,,,,
1634343568.55419183,19360,0.0002778249909169972,5.952559149591252e-05,-0.12209317833185196,0.0003788028552662581,0.0002601775049697608,0.0011245266068726778,,,,,,,,,,,,,,,,,,,,,,,,,,
1634343568.55713987,,,,,,,,19360586,0,1500,1500,1000,1500,0,0,0,0,0,0,0,0,0,0,0,0,,,,,,,,
1634343568.80983996,19620,0.0003271345340181142,9.518902515992522e-05,-0.12208081036806107,0.00011839212675113231,3.346467565279454e-05,0.00015188398538157344,,,,,,,,,,,,,,,,,,,,,,,,,,
1634343568.81275582,,,,,,,,19620482,0,1500,1500,1000,1500,0,0,0,0,0,0,0,0,0,0,0,0,,,,,,,,
1634343569.05051184,19860,0.00034371321089565754,0.00010654551442712545,-0.12209589034318924,0.00011639445438049734,0.00010165442654397339,0.0001631952909519896,,,,,,,,,,,,,,,,,,,,,,,,,,
1634343569.05760002,,,,,,,,19860386,0,1500,1500,1000,1500,0,0,0,0,0,0,0,0,0,0,0,0,,,,,,,,
1634343569.30871201,20120,0.0003643360687419772,0.00012987370428163558,-0.12211229652166367,9.85982915153727e-05,0.00016402969777118415,0.00018121091125067323,,,,,,,,,,,,,,,,,,,,,,,,,,
1634343569.31162381,,,,,,,,20120282,0,1500,1500,1000,1500,0,0,0,0,0,0,0,0,0,0,0,0,,,,,,,,
1634343569.55052400,20360,0.00038021086947992444,0.00014778021431993693,-0.1221328154206276,0.00018854050722438842,0.0001524228136986494,0.00011197231651749462,,,,,,,,,,,,,,,,,,,,,,,,,,
1634343569.55380797,,,,,,,,20360186,0,1500,1500,1000,1500,0,0,0,0,0,0,0,0,0,0,0,0,,,,,,,,
1634343569.81477189,20620,0.0003938873123843223,0.00016659080574754626,-0.12215712666511536,0.0001367514778394252,0.00011678844748530537,0.00017261751054320484,,,,,,,,,,,,,,,,,,,,,,,,,,
1634343569.82419181,,,,,,,,20620915,0,1500,1500,1000,1500,0,0,0,0,0,0,0,0,0,0,0,0,,,,,,,,
1634343570.13888788,20860,0.00040413724491372705,0.0001757326244842261,-0.12218446284532547,0.00018289554282091558,0.00011719932081177831,0.00016558087372686714,,,,,,,,,,,,,,,,,,,,,,,,,,
1634343570.14754391,,,,,,,,20860819,0,1500,1500,1000,1500,0,0,0,0,0,0,0,0,0,0,0,0,,,,,,,,
1634343570.40012789,21120,0.00041103310650214553,0.00017758517060428858,-0.12221052497625351,0.00019546094699762762,6.353112985379994e-05,0.0001076299959095195,,,,,,,,,,,,,,,,,,,,,,,,,,
1634343570.40854383,,,,,,,,21120715,0,1500,1500,1000,1500,0,0,0,0,0,0,0,0,0,0,0,0,,,,,,,,
1634343570.63115191,21360,0.00040454600821249187,0.0001720503787510097,-0.1222328320145607,0.00014719196769874543,8.080633415374905e-05,0.0002106059400830418,,,,,,,,,,,,,,,,,,,,,,,,,,
1634343570.63427591,,,,,,,,21360619,0,1500,1500,1000,1500,0,0,0,0,0,0,0,0,0,0,0,0,,,,,,,,
1634343570.81184793,21620,0.0003947099030483514,0.0001578611263539642,-0.12225078791379929,8.280089241452515e-05,5.1154245738871396e-05,0.00016792585665825754,,,,,,,,,,,,,,,,,,,,,,,,,,
1634343570.81481194,,,,,,,,21620515,0,1500,1500,1000,1500,0,0,0,0,0,0,0,0,0,0,0,0,,,,,,,,
1634343571.05165601,21860,0.0003888466744683683,0.00014812409062869847,-0.12226466089487076,0.00012277282075956464,0.00015732059546280652,0.00020906489226035774,,,,,,,,,,,,,,,,,,,,,,,,,,
1634343571.05478001,,,,,,,,21860419,0,1500,1500,1000,1500,0,0,0,0,0,0,0,0,0,0,0,0,,,,,,,,
1634343571.31080389,22120,0.0003834068775177002,0.00014007142453920096,-0.12228287011384964,0.00011847434507217258,0.0001436152815585956,6.141391349956393e-05,,,,,,,,,,,,,,,,,,,,,,,,,,
1634343571.31385994,,,,,,,,22120315,0,1500,1500,1000,1500,0,0,0,0,0,0,0,0,0,0,0,0,,,,,,,,
1634343571.55079198,22360,0.000372679642168805,0.00012710815644823015,-0.12228924036026001,0.00018900854047387838,0.00014497269876301289,0.00017222804308403283,,,,,,,,,,,,,,,,,,,,,,,,,,
1634343571.55369186,,,,,,,,22360219,0,1500,1500,1000,1500,0,0,0,0,0,0,0,0,0,0,0,0,,,,,,,,
1634343571.81473589,22620,0.00036906765308231115,0.00012231884466018528,-0.12229762971401215,9.987583325710148e-05,0.0001332237443421036,0.00017790468700695783,,,,,,,,,,,,,,,,,,,,,,,,,,
1634343571.81909585,,,,,,,,22620948,0,1500,1500,1000,1500,0,0,0,0,0,0,0,0,0,0,0,0,,,,,,,,
1634343572.05050802,22860,0.00036445888690650463,0.00012005329335806891,-0.12230286747217178,0.00017371578724123538,7.459982589352876e-05,0.00014962749264668673,,,,,,,,,,,,,,,,,,,,,,,,,,
1634343572.05346799,,,,,,,,22860852,0,1500,1500,1000,1500,0,0,0,0,0,0,0,0,0,0,0,0,,,,,,,,
1634343572.31294799,23120,0.000363274390110746,0.0001199626422021538,-0.12230272591114044,0.00014140363782644272,9.222576045431197e-05,0.00020713091362267733,,,,,,,,,,,,,,,,,,,,,,,,,,
1634343572.31597996,,,,,,,,23120748,0,1500,1500,1000,1500,0,0,0,0,0,0,0,0,0,0,0,0,,,,,,,,
1634343572.55301189,23360,0.00036018152604810894,0.00012051052181050181,-0.12230122834444046,0.00016141025116667151,3.873281821142882e-05,0.0001462633954361081,,,,,,,,,,,,,,,,,,,,,,,,,,
1634343572.55770802,,,,,,,,23360652,0,1500,1500,1000,1500,0,0,0,0,0,0,0,0,0,0,0,0,,,,,,,,
1634343572.81199193,23620,0.0003622649528551847,0.00011854405602207407,-0.1223076805472374,0.00014352916332427412,0.00011068242019973695,0.00011451196041889489,,,,,,,,,,,,,,,,,,,,,,,,,,
1634343572.81507993,,,,,,,,23620548,0,1500,1500,1000,1500,0,0,0,0,0,0,0,0,0,0,0,0,,,,,,,,
1634343573.05426383,23860,0.0003673333558253944,0.00011578887642826885,-0.12231474369764328,0.00018153853307012469,0.00011506036389619112,0.0001507552806288004,,,,,,,,,,,,,,,,,,,,,,,,,,
1634343573.05719995,,,,,,,,23860452,0,1500,1500,1000,1500,0,0,0,0,0,0,0,0,0,0,0,0,,,,,,,,
1634343573.31018782,24120,0.0003765131114050746,0.0001235981471836567,-0.12231679260730743,7.941453077364713e-05,8.892241748981178e-05,0.0001770318194758147,,,,,,,,,,,,,,,,,,,,,,,,,,
1634343573.31337190,,,,,,,,24120348,0,1500,1500,1000,1500,0,0,0,0,0,0,0,0,0,0,0,0,,,,,,,,
1634343573.55265594,24360,0.0003827117325272411,0.00012558109301608056,-0.12232013046741486,0.00013471029524225742,0.00013476118328981102,8.83683969732374e-05,,,,,,,,,,,,,,,,,,,,,,,,,,
1634343573.55619192,,,,,,,,24360252,0,1500,1500,1000,1500,0,0,0,0,0,0,0,0,0,0,0,0,,,,,,,,
1634343573.81225586,24620,0.0003901688032783568,0.00013525201939046383,-0.12232100963592529,8.343849913217127e-05,6.829528138041496e-05,0.00016725277237128466,,,,,,,,,,,,,,,,,,,,,,,,,,
1634343573.81516790,,,,,,,,24620148,0,1500,1500,1000,1500,0,0,0,0,0,0,0,0,0,0,0,0,,,,,,,,
1634343574.05008793,24860,0.00039595714770257473,0.00014394715253729373,-0.12231750786304474,0.0001449668634450063,9.668507846072316e-05,0.00020494713680818677,,,,,,,,,,,,,,,,,,,,,,,,,,
1634343574.05331182,,,,,,,,24860885,0,1500,1500,1000,1500,0,0,0,0,0,0,0,0,0,0,0,0,,,,,,,,
1634343574.31241202,25120,0.0004103915998712182,0.00015501136658713222,-0.122317373752594,0.0002009200252359733,3.425273462198675e-05,0.0002046700828941539,,,,,,,,,,,,,,,,,,,,,,,,,,
1634343574.31522799,,,,,,,,25120781,0,1500,1500,1000,1500,0,0,0,0,0,0,0,0,0,0,0,0,,,,,,,,
1634343574.55396795,25360,0.0004184514400549233,0.00016957565094344318,-0.12231796234846115,9.944713383447379e-05,0.00014481425751000643,0.00022829817316960543,,,,,,,,,,,,,,,,,,,,,,,,,,
1634343574.55713582,,,,,,,,25360685,0,1500,1500,1000,1500,0,0,0,0,0,0,0,0,0,0,0,0,,,,,,,,
1634343574.81453991,25620,0.0004289963690098375,0.00018566104699857533,-0.12232572585344315,0.00020007285638712347,0.00012572723790071905,0.00014871022722218186,,,,,,,,,,,,,,,,,,,,,,,,,,
1634343574.81758785,,,,,,,,25620581,0,1500,1500,1000,1500,0,0,0,0,0,0,0,0,0,0,0,0,,,,,,,,
1634343575.04981589,25860,0.0004454512964002788,0.00019839945889543742,-0.12233041971921921,0.0001864809892140329,0.00017460677190683782,0.00023427566338796169,,,,,,,,,,,,,,,,,,,,,,,,,,
1634343575.05305982,,,,,,,,25860485,0,1500,1500,1000,1500,0,0,0,0,0,0,0,0,0,0,0,0,,,,,,,,
1634343575.31107187,26120,0.0004592197365127504,0.0002098140394082293,-0.12233655899763107,0.000142842618515715,6.855480023659766e-05,0.0001814184943214059,,,,,,,,,,,,,,,,,,,,,,,,,,
1634343575.31399989,,,,,,,,26120381,0,1500,1500,1000,1500,0,0,0,0,0,0,0,0,0,0,0,0,,,,,,,,
1634343575.55451202,26360,0.0004750615044031292,0.0002259514294564724,-0.12234792113304138,0.00019708354375325143,0.00012282610987313092,0.0001130992459366098,,,,,,,,,,,,,,,,,,,,,,,,,,
1634343575.56043196,,,,,,,,26360285,0,1500,1500,1000,1500,0,0,0,0,0,0,0,0,0,0,0,0,,,,,,,,
1634343575.80949998,26620,0.00048642742331139743,0.0002430149761494249,-0.1223553940653801,0.00013153596955817193,0.0001257909752894193,0.00016887974925339222,,,,,,,,,,,,,,,,,,,,,,,,,,
1634343575.81330800,,,,,,,,26620181,0,1500,1500,1000,1500,0,0,0,0,0,0,0,0,0,0,0,0,,,,,,,,
1634343576.05476785,26860,0.0005028520245105028,0.0002481660631019622,-0.12236849963665009,0.00020217144628986716,7.764162728562951e-05,0.00012584164505824447,,,,,,,,,,,,,,,,,,,,,,,,,,
1634343576.05802798,,,,,,,,26860918,0,1500,1500,1000,1500,0,0,0,0,0,0,0,0,0,0,0,0,,,,,,,,
1634343576.31428790,27120,0.0005143702146597207,0.00026453996542841196,-0.12237683683633804,0.0001410650002071634,0.0001252107322216034,0.00018363166600465775,,,,,,,,,,,,,,,,,,,,,,,,,,
1634343576.31715202,,,,,,,,27120814,0,1500,1500,1000,1500,0,0,0,0,0,0,0,0,0,0,0,0,,,,,,,,
1634343576.55183196,27360,0.0005313729634508491,0.00027710155700333416,-0.12238696962594986,0.00021955175907351077,0.00013124241377227008,0.00011649333464447409,,,,,,,,,,,,,,,,,,,,,,,,,,
1634343576.55501199,,,,,,,,27360718,0,1500,1500,1000,1500,0,0,0,0,0,0,0,0,0,0,0,0,,,,,,,,
1634343576.81339192,27620,0.0005478710518218577,0.000293149147182703,-0.12240080535411835,0.00022689113393425941,0.00013462966307997704,0.00010386819485574961,,,,,,,,,,,,,,,,,,,,,,,,,,
1634343576.81801581,,,,,,,,27620614,0,1500,1500,1000,1500,0,0,0,0,0,0,0,0,0,0,0,0,,,,,,,,
1634343577.04998803,27860,0.0005551239009946585,0.0003072242543566972,-0.12241862714290619,0.0001893629232654348,0.0001439640182070434,0.0001712786906864494,,,,,,,,,,,,,,,,,,,,,,,,,,
1634343577.05413198,,,,,,,,27860518,0,1500,1500,1000,1500,0,0,0,0,0,0,0,0,0,0,0,0,,,,,,,,
1634343577.31495190,28120,0.0005707092932425439,0.00032150550396181643,-0.12243098020553589,0.00020953263447154313,0.000140337273478508,0.0002601465384941548,,,,,,,,,,,,,,,,,,,,,,,,,,
1634343577.32079196,,,,,,,,28120414,0,1500,1500,1000,1500,0,0,0,0,0,0,0,0,0,0,0,0,,,,,,,,
1634343577.55483198,28360,0.0005820249789394438,0.00033559498842805624,-0.12244684249162674,0.00013216293882578611,0.00017324424698017538,0.000142298435093835,,,,,,,,,,,,,,,,,,,,,,,,,,
1634343577.55793595,,,,,,,,28360318,0,1500,1500,1000,1500,0,0,0,0,0,0,0,0,0,0,0,0,,,,,,,,
1634343577.81123996,28620,0.0005903099081479013,0.00034389321808703244,-0.12246555835008621,0.0001846635714173317,9.964752825908363e-05,5.013836198486388e-05,,,,,,,,,,,,,,,,,,,,,,,,,,
1634343577.81411195,,,,,,,,28620214,0,1500,1500,1000,1500,0,0,0,0,0,0,0,0,0,0,0,0,,,,,,,,
1634343578.05295181,28860,0.0006055155536159873,0.00035644430317915976,-0.12247630953788757,0.00016762503946665674,0.0001563384139444679,0.00017993213259615004,,,,,,,,,,,,,,,,,,,,,,,,,,
1634343578.05590391,,,,,,,,28860951,0,1500,1500,1000,1500,0,0,0,0,0,0,0,0,0,0,0,0,,,,,,,,
1634343578.31201601,29120,0.0006179586052894592,0.0003706518327817321,-0.12248580157756805,0.00014068515156395733,0.00011381655349396169,0.00010375038255006075,,,,,,,,,,,,,,,,,,,,,,,,,,
1634343578.31564784,,,,,,,,29120847,0,1500,1500,1000,1500,0,0,0,0,0,0,0,0,0,0,0,0,,,,,,,,
1634343578.55033994,29360,0.0006309869349934161,0.0003839041746687144,-0.12249942123889923,0.00029947925941087306,0.00014793072477914393,0.0001727319322526455,,,,,,,,,,,,,,,,,,,,,,,,,,
1634343578.55589199,,,,,,,,29360751,0,1500,1500,1000,1500,0,0,0,0,0,0,0,0,0,0,0,0,,,,,,,,
1634343578.81350398,29620,0.0006486609927378595,0.00038780641625635326,-0.12252131849527359,0.00014809469575993717,8.972559589892626e-05,0.00011224154150113463,,,,,,,,,,,,,,,,,,,,,,,,,,
1634343578.81682801,,,,,,,,29620647,0,1500,1500,1000,1500,0,0,0,0,0,0,0,0,0,0,0,0,,,,,,,,
1634343579.05425596,29860,0.0006561651243828237,0.00039639088208787143,-0.12253203243017197,0.00024468894116580486,7.106739212758839e-05,0.00017058980301953852,,,,,,,,,,,,,,,,,,,,,,,,,,
1634343579.05742383,,,,,,,,29860551,0,1500,1500,1000,1500,0,0,0,0,0,0,0,0,0,0,0,0,,,,,,,,
1634343579.31022000,30120,0.000663871644064784,0.0004008127434644848,-0.12255062907934189,0.00014108138566371053,0.0001142243854701519,0.0001620753319002688,,,,,,,,,,,,,,,,,,,,,,,,,,
1634343579.31326389,,,,,,,,30120447,0,1500,1500,1000,1500,0,0,0,0,0,0,0,0,0,0,0,0,,,,,,,,
1634343579.55040383,30360,0.0006711182068102062,0.0004096158081665635,-0.12256678938865662,0.00020927394507452846,0.00015827090828679502,0.00017108922475017607,,,,,,,,,,,,,,,,,,,,,,,,,,
1634343579.55367589,,,,,,,,30360351,0,1500,1500,1000,1500,0,0,0,0,0,0,0,0,0,0,0,0,,,,,,,,
1634343579.81068802,30620,0.0006827261531725526,0.00041954551124945283,-0.12258309870958328,0.00019272153440397233,0.0001987616706173867,0.0001350749225821346,,,,,,,,,,,,,,,,,,,,,,,,,,
1634343579.81385589,,,,,,,,30620247,0,1500,1500,1000,1500,0,0,0,0,0,0,0,0,0,0,0,0,,,,,,,,
1634343580.05327201,30860,0.0006923641194589436,0.0004296147671993822,-0.12260746955871582,0.0001956318737939,0.00011744245421141386,0.00013718506670556962,,,,,,,,,,,,,,,,,,,,,,,,,,
1634343580.05685592,,,,,,,,30860151,0,1500,1500,1000,1500,0,0,0,0,0,0,0,0,0,0,0,0,,,,,,,,
1634343580.31031203,31120,0.0007068942068144679,0.0004359808226581663,-0.12262343615293503,0.0002106533938786015,0.00015197417815215886,0.00018093769904226065,,,,,,,,,,,,,,,,,,,,,,,,,,
1634343580.31341600,,,,,,,,31120880,0,1500,1500,1000,1500,0,0,0,0,0,0,0,0,0,0,0,0,,,,,,,,
1634343580.55538797,31360,0.0007247024914249778,0.00044442826765589416,-0.12263374030590057,0.0002671695838216692,0.00020634676911868155,0.00021369787282310426,,,,,,,,,,,,,,,,,,,,,,,,,,
1634343580.55833197,,,,,,,,31360784,0,1500,1500,1000,1500,0,0,0,0,0,0,0,0,0,0,0,0,,,,,,,,
1634343580.81071186,31620,0.0007346213678829372,0.00045754204620607197,-0.12265189737081528,0.00022481410996988416,0.00023085466818884015,0.0001489337591920048,,,,,,,,,,,,,,,,,,,,,,,,,,
1634343580.81376004,,,,,,,,31620680,0,1500,1500,1000,1500,0,0,0,0,0,0,0,0,0,0,0,0,,,,,,,,
1634343581.05297184,31860,0.0007424011128023267,0.00046474108239635825,-0.12266545742750168,0.00013945478713139892,0.00016822078032419086,0.00014234651462174952,,,,,,,,,,,,,,,,,,,,,,,,,,
1634343581.05611181,,,,,,,,31860584,0,1500,1500,1000,1500,0,0,0,0,0,0,0,0,0,0,0,0,,,,,,,,
1634343581.31361985,32120,0.0007517459453083575,0.0004709855711553246,-0.12268312275409698,0.00019215146312490106,0.00014684611232951283,0.00013468856923282146,,,,,,,,,,,,,,,,,,,,,,,,,,
1634343581.31665993,,,,,,,,32120480,0,1500,1500,1000,1500,0,0,0,0,0,0,0,0,0,0,0,0,,,,,,,,
1634343581.54995584,32360,0.0007580668316222727,0.00047672135406173766,-0.12270203232765198,0.0002453669148962945,8.12576909083873e-05,0.00010414700955152512,,,,,,,,,,,,,,,,,,,,,,,,,,
1634343581.55541182,,,,,,,,32360384,0,1500,1500,1000,1500,0,0,0,0,0,0,0,0,0,0,0,0,,,,,,,,
1634343581.81257987,32620,0.0007660025148652494,0.0004932901356369257,-0.12271604686975479,0.0002245035720989108,0.0002140887954737991,0.00011044333223253489,,,,,,,,,,,,,,,,,,,,,,,,,,
1634343581.81649590,,,,,,,,32620280,0,1500,1500,1000,1500,0,0,0,0,0,0,0,0,0,0,0,0,,,,,,,,
1634343582.05503988,32860,0.0007781453314237297,0.0005002730758860707,-0.1227259561419487,0.0002321123902220279,0.000128929503262043,0.00023429965949617326,,,,,,,,,,,,,,,,,,,,,,,,,,
1634343582.05989194,,,,,,,,32860184,0,1500,1500,1000,1500,0,0,0,0,0,0,0,0,0,0,0,0,,,,,,,,
1634343582.31331587,33120,0.0007889783591963351,0.0005123291630297899,-0.1227371096611023,0.00024921802105382085,0.00021984081831760705,0.00022450985852628946,,,,,,,,,,,,,,,,,,,,,,,,,,
1634343582.31647992,,,,,,,,33120913,0,1500,1500,1000,1500,0,0,0,0,0,0,0,0,0,0,0,0,,,,,,,,
1634343582.55406404,33360,0.000797614105977118,0.0005227695219218731,-0.12274933606386185,0.0001953197061084211,0.00020162493456155062,0.0001883624936453998,,,,,,,,,,,,,,,,,,,,,,,,,,
1634343582.55709600,,,,,,,,33360817,0,1500,1500,1000,1500,0,0,0,0,0,0,0,0,0,0,0,0,,,,,,,,
1634343582.81232786,33620,0.0008097260142676532,0.0005318137118592858,-0.12276148796081543,0.0002750264829955995,0.00016164148109965026,0.00014316343003883958,,,,,,,,,,,,,,,,,,,,,,,,,,
1634343582.81525588,,,,,,,,33620713,0,1500,1500,1000,1500,0,0,0,0,0,0,0,0,0,0,0,0,,,,,,,,
1634343583.05095196,33860,0.0008151501533575356,0.0005408368888311088,-0.12277203798294067,0.00017487790319137275,0.00022914851433597505,0.0002017015649471432,,,,,,,,,,,,,,,,,,,,,,,,,,
1634343583.05400801,,,,,,,,33860617,0,1500,1500,1000,1500,0,0,0,0,0,0,0,0,0,0,0,0,,,,,,,,
1634343583.31073189,34120,0.0008219133014790714,0.0005500531988218427,-0.12278355658054352,0.0002730398846324533,0.00015576681471429765,0.00021796947112306952,,,,,,,,,,,,,,,,,,,,,,,,,,
1634343583.31359196,,,,,,,,34120513,0,1500,1500,1000,1500,0,0,0,0,0,0,0,0,0,0,0,0,,,,,,,,
1634343583.55291986,34360,0.0008314231527037919,0.0005647945799864829,-0.12280023097991943,0.00020500656682997942,0.00022984028328210115,0.00015927403001114726,,,,,,,,,,,,,,,,,,,,,,,,,,
1634343583.55992794,,,,,,,,34360417,0,1500,1500,1000,1500,0,0,0,0,0,0,0,0,0,0,0,0,,,,,,,,
1634343583.81206393,34620,0.0008356515318155289,0.0005770248826593161,-0.12281160801649094,0.00017772385035641491,0.00012651487486436963,0.0001608004968147725,,,,,,,,,,,,,,,,,,,,,,,,,,
1634343583.81527996,,,,,,,,34620313,0,1500,1500,1000,1500,0,0,0,0,0,0,0,0,0,0,0,0,,,,,,,,
1634343584.05133581,34860,0.0008361170766875148,0.000584653636906296,-0.12282571196556091,0.000252420490141958,0.00013048879918642342,0.0001892435539048165,,,,,,,,,,,,,,,,,,,,,,,,,,
1634343584.05663586,,,,,,,,34860217,0,1500,1500,1000,1500,0,0,0,0,0,0,0,0,0,0,0,0,,,,,,,,
1634343584.31515193,35120,0.0008424412808381021,0.000590270443353802,-0.12283863127231598,0.0002525445888750255,0.0001679642591625452,0.00015410120249725878,,,,,,,,,,,,,,,,,,,,,,,,,,
1634343584.32048392,,,,,,,,35120946,0,1500,1500,1000,1500,0,0,0,0,0,0,0,0,0,0,0,0,,,,,,,,
1634343584.55092788,35360,0.0008520053816027939,0.0005942336865700781,-0.12284589558839798,0.00022429469390772283,0.00016734286327846348,0.00015183512005023658,,,,,,,,,,,,,,,,,,,,,,,,,,
1634343584.55393600,,,,,,,,35360850,0,1500,1500,1000,1500,0,0,0,0,0,0,0,0,0,0,0,0,,,,,,,,
1634343584.81090784,35620,0.0008571266080252826,0.0005985430907458067,-0.12285809963941574,0.0002361771767027676,0.00016846053767949343,0.00018418714171275496,,,,,,,,,,,,,,,,,,,,,,,,,,
1634343584.81402397,,,,,,,,35620746,0,1500,1500,1000,1500,0,0,0,0,0,0,0,0,0,0,0,0,,,,,,,,
1634343585.05341983,35860,0.000860840838868171,0.000608101487159729,-0.12286943197250366,0.0002475625369697809,0.00024423206923529506,0.00018454639939591289,,,,,,,,,,,,,,,,,,,,,,,,,,
1634343585.06173587,,,,,,,,35860650,0,1500,1500,1000,1500,0,0,0,0,0,0,0,0,0,0,0,0,,,,,,,,
1634343585.31413198,36120,0.0008680361206643283,0.0006160133052617311,-0.1228833794593811,0.00023575578234158456,0.00022978289052844048,0.000191635568626225,,,,,,,,,,,,,,,,,,,,,,,,,,
1634343585.31760788,,,,,,,,36120546,0,1500,1500,1000,1500,0,0,0,0,0,0,0,0,0,0,0,0,,,,,,,,
1634343585.55486798,36360,0.0008799991919659078,0.0006232565501704812,-0.12289640307426453,0.00026104558492079377,0.0001410271506756544,0.00012338778469711542,,,,,,,,,,,,,,,,,,,,,,,,,,
1634343585.55807996,,,,,,,,36360450,0,1500,1500,1000,1500,0,0,0,0,0,0,0,0,0,0,0,0,,,,,,,,
1634343585.81315184,36620,0.0008891251054592431,0.0006316671497188509,-0.12290016561746597,0.00019830968813039362,0.00014656639541499317,0.00020088758901692927,,,,,,,,,,,,,,,,,,,,,,,,,,
1634343585.81629586,,,,,,,,36620346,0,1500,1500,1000,1500,0,0,0,0,0,0,0,0,0,0,0,0,,,,,,,,
1634343586.05218792,36860,0.0008956388919614255,0.0006407506298273802,-0.1229100450873375,0.00018485166947357357,0.0002353366871830076,0.0001703056914266199,,,,,,,,,,,,,,,,,,,,,,,,,,
1634343586.06733203,,,,,,,,36860250,0,1500,1500,1000,1500,0,0,0,0,0,0,0,0,0,0,0,0,,,,,,,,
1634343586.31469202,37120,0.0009037395939230919,0.0006462198216468096,-0.12292522937059402,0.00024897081311792135,0.00019278720719739795,0.0001263825106434524,,,,,,,,,,,,,,,,,,,,,,,,,,
1634343586.31752801,,,,,,,,37120146,0,1500,1500,1000,1500,0,0,0,0,0,0,0,0,0,0,0,0,,,,,,,,
1634343586.55359602,37360,0.0009058289579115808,0.0006519550806842744,-0.12293138355016708,0.00027148029766976833,0.00012323306873440742,0.0001847470412030816,,,,,,,,,,,,,,,,,,,,,,,,,,
1634343586.55641985,,,,,,,,37360883,0,1500,1500,1000,1500,0,0,0,0,0,0,0,0,0,0,0,0,,,,,,,,
1634343586.81666398,37620,0.0009134297142736614,0.0006586536765098572,-0.12294033914804459,0.00023730716202408075,0.00021317359642125666,0.00021058693528175354,,,,,,,,,,,,,,,,,,,,,,,,,,
1634343586.81963992,,,,,,,,37620779,0,1500,1500,1000,1500,0,0,0,0,0,0,0,0,0,0,0,0,,,,,,,,
1634343587.05179191,37860,0.0009152877610176802,0.0006651621079072356,-0.12294429540634155,0.00025175907649099827,0.00022280268603935838,0.0002357026096433401,,,,,,,,,,,,,,,,,,,,,,,,,,
1634343587.05457997,,,,,,,,37860683,0,1500,1500,1000,1500,0,0,0,0,0,0,0,0,0,0,0,0,,,,,,,,
1634343587.31095195,38120,0.0009231228614225984,0.0006725082057528198,-0.1229453980922699,0.00021251768339425325,0.00015761450049467385,0.0001951655140146613,,,,,,,,,,,,,,,,,,,,,,,,,,
1634343587.31383991,,,,,,,,38120579,0,1500,1500,1000,1500,0,0,0,0,0,0,0,0,0,0,0,0,,,,,,,,
1634343587.55287981,38360,0.0009306169813498855,0.0006749395397491753,-0.12294943630695343,0.0002462216652929783,0.00018454360542818904,0.0002046384906861931,,,,,,,,,,,,,,,,,,,,,,,,,,
1634343587.55607986,,,,,,,,38360483,0,1500,1500,1000,1500,0,0,0,0,0,0,0,0,0,0,0,0,,,,,,,,
1634343587.81260395,38620,0.0009417198016308248,0.0006786335143260658,-0.12295503914356232,0.000269051844952628,0.00015216259635053575,0.00015167391393333673,,,,,,,,,,,,,,,,,,,,,,,,,,
1634343587.81549597,,,,,,,,38620379,0,1500,1500,1000,1500,0,0,0,0,0,0,0,0,0,0,0,0,,,,,,,,
1634343588.05560803,38860,0.0009467031923122704,0.0006837630062364042,-0.12295635044574738,0.0003561402263585478,0.00018821103731170297,0.000199725735001266,,,,,,,,,,,,,,,,,,,,,,,,,,
1634343588.05836797,,,,,,,,38860283,0,1500,1500,1000,1500,0,0,0,0,0,0,0,0,0,0,0,0,,,,,,,,
1634343588.31154394,39120,0.0009543192572891712,0.0006918628350831568,-0.12295736372470856,0.00027937398408539593,0.0002073017822112888,0.00020659054280258715,,,,,,,,,,,,,,,,,,,,,,,,,,
1634343588.31444001,,,,,,,,39120179,0,1500,1500,1000,1500,0,0,0,0,0,0,0,0,0,0,0,0,,,,,,,,
1634343588.55409193,39360,0.0009573288261890411,0.0006971227121539414,-0.12296231836080551,0.00021101927268318832,0.00012549335951916873,0.00028942624339833856,,,,,,,,,,,,,,,,,,,,,,,,,,
1634343588.56065202,,,,,,,,39360916,0,1500,1500,1000,1500,0,0,0,0,0,0,0,0,0,0,0,0,,,,,,,,
1634343588.81555200,39620,0.0009652356384322047,0.0007102295639924705,-0.12296847254037857,0.0002138501440640539,0.00018190257833339274,0.00020802076323889196,,,,,,,,,,,,,,,,,,,,,,,,,,
1634343588.81848383,,,,,,,,39620812,0,1500,1500,1000,1500,0,0,0,0,0,0,0,0,0,0,0,0,,,,,,,,
1634343589.05211186,39860,0.000972811016254127,0.000712467881385237,-0.12297908961772919,0.00028240637038834393,0.00018849456682801247,0.00013979410869069397,,,,,,,,,,,,,,,,,,,,,,,,,,
1634343589.05529189,,,,,,,,39860716,0,1500,1500,1000,1500,0,0,0,0,0,0,0,0,0,0,0,0,,,,,,,,
1634343589.31125998,40120,0.000976920360699296,0.0007196132792159915,-0.12297813594341278,0.0002990449720527977,0.0001587068836670369,0.00024189002579078078,,,,,,,,,,,,,,,,,,,,,,,,,,
1634343589.31420803,,,,,,,,40120612,0,1500,1500,1000,1500,0,0,0,0,0,0,0,0,0,0,0,0,,,,,,,,
1634343589.55375195,40360,0.0009878830751404166,0.0007274635718204081,-0.12297928333282471,0.0003034399705938995,0.00017376188770867884,0.0001417791936546564,,,,,,,,,,,,,,,,,,,,,,,,,,
1634343589.56092000,,,,,,,,40360516,0,1500,1500,1000,1500,0,0,0,0,0,0,0,0,0,0,0,0,,,,,,,,
1634343589.81112790,40620,0.0009965974604710937,0.000743235694244504,-0.12297797948122025,0.00024017452960833907,0.00022654322674497962,0.00023356475867331028,,,,,,,,,,,,,,,,,,,,,,,,,,
1634343589.81413984,,,,,,,,40620412,0,1500,1500,1000,1500,0,0,0,0,0,0,0,0,0,0,0,0,,,,,,,,
1634343590.05401587,40860,0.0010016998276114464,0.0007482402725145221,-0.12298593670129776,0.0002935720549430698,0.00020419791690073907,0.0001445081434212625,,,,,,,,,,,,,,,,,,,,,,,,,,
1634343590.05705595,,,,,,,,40860316,0,1500,1500,1000,1500,0,0,0,0,0,0,0,0,0,0,0,0,,,,,,,,
1634343590.31192803,41120,0.0010039901826530695,0.0007629377651028335,-0.12298670411109924,0.00028970203129574656,0.0002585236507002264,0.000190280145034194,,,,,,,,,,,,,,,,,,,,,,,,,,
1634343590.31587195,,,,,,,,41120212,0,1500,1500,1000,1500,0,0,0,0,0,0,0,0,0,0,0,0,,,,,,,,
1634343590.55585194,41360,0.0010131382150575519,0.0007646568119525909,-0.12299217283725739,0.0002623111940920353,0.00016902020433917642,0.00023050405434332788,,,,,,,,,,,,,,,,,,,,,,,,,,
1634343590.55882001,,,,,,,,41360949,0,1500,1500,1000,1500,0,0,0,0,0,0,0,0,0,0,0,0,,,,,,,,
1634343590.81325984,41620,0.0010220512049272656,0.0007749044452793896,-0.12299613654613495,0.0002547465555835515,0.00024299652432091534,0.0002465487632434815,,,,,,,,,,,,,,,,,,,,,,,,,,
1634343590.81624389,,,,,,,,41620845,0,1500,1500,1000,1500,0,0,0,0,0,0,0,0,0,0,0,0,,,,,,,,
1634343591.05404782,41860,0.001023604883812368,0.0007775739068165421,-0.12299460917711258,0.00026830495335161686,0.00020255226991139352,0.0002184612094424665,,,,,,,,,,,,,,,,,,,,,,,,,,
1634343591.05730796,,,,,,,,41860749,0,1500,1500,1000,1500,0,0,0,0,0,0,0,0,0,0,0,0,,,,,,,,
1634343591.31563997,42120,0.001031488529406488,0.0007845252985134721,-0.12299560010433197,0.0002727968676481396,0.0002208632358815521,0.00018568855011835694,,,,,,,,,,,,,,,,,,,,,,,,,,
1634343591.31874394,,,,,,,,42120645,0,1500,1500,1000,1500,0,0,0,0,0,0,0,0,0,0,0,0,,,,,,,,
1634343591.55616403,42360,0.0010389800881966949,0.0007959521608427167,-0.12299925088882446,0.00018089808872900903,0.00023360489285551012,0.00024183993809856474,,,,,,,,,,,,,,,,,,,,,,,,,,
1634343591.55905199,,,,,,,,42360549,0,1500,1500,1000,1500,0,0,0,0,0,0,0,0,0,0,0,0,,,,,,,,
1634343591.81676388,42620,0.0010471446439623833,0.0008055150392465293,-0.12300052493810654,0.0002931357594206929,0.00022057184833101928,0.0002711069246288389,,,,,,,,,,,,,,,,,,,,,,,,,,
1634343591.82359982,,,,,,,,42620445,0,1500,1500,1000,1500,0,0,0,0,0,0,0,0,0,0,0,0,,,,,,,,
1634343592.05295992,42860,0.001047148834913969,0.0008145780302584171,-0.12299812585115433,0.00023633992532268167,0.00028936556191183627,0.00024046437465585768,,,,,,,,,,,,,,,,,,,,,,,,,,
1634343592.05668402,,,,,,,,42860349,0,1500,1500,1000,1500,0,0,0,0,0,0,0,0,0,0,0,0,,,,,,,,
1634343592.31287193,43120,0.0010518735507503152,0.0008228642982430756,-0.12300480157136917,0.0002652534458320588,0.00023264222545549273,0.0002311561838723719,,,,,,,,,,,,,,,,,,,,,,,,,,
1634343592.31683993,,,,,,,,43120245,0,1500,1500,1000,1500,0,0,0,0,0,0,0,0,0,0,0,0,,,,,,,,
1634343592.55366397,43360,0.001059990143403411,0.0008247201330959797,-0.12300693988800049,0.00032412365544587374,0.0002470341569278389,0.00017694744747132063,,,,,,,,,,,,,,,,,,,,,,,,,,
1634343592.55708790,,,,,,,,43360149,0,1500,1500,1000,1500,0,0,0,0,0,0,0,0,0,0,0,0,,,,,,,,
1634343592.81276393,43620,0.0010661953128874302,0.0008329293341375887,-0.12300506234169006,0.00022071957937441766,0.0002254691207781434,0.00017842906527221203,,,,,,,,,,,,,,,,,,,,,,,,,,
1634343592.81581593,,,,,,,,43620878,0,1500,1500,1000,1500,0,0,0,0,0,0,0,0,0,0,0,0,,,,,,,,
1634343593.05511594,43860,0.0010699779959395528,0.000836363818962127,-0.12300219386816025,0.00022876937873661518,0.0002768484700936824,0.00024789717281237245,,,,,,,,,,,,,,,,,,,,,,,,,,
1634343593.05790782,,,,,,,,43860782,0,1500,1500,1000,1500,0,0,0,0,0,0,0,0,0,0,0,0,,,,,,,,
1634343593.31170797,44120,0.001075447304174304,0.000840549822896719,-0.12300094217061996,0.00024342574761249125,0.00023838476045057178,0.000265102949924767,,,,,,,,,,,,,,,,,,,,,,,,,,
1634343593.31496000,,,,,,,,44120678,0,1500,1500,1000,1500,0,0,0,0,0,0,0,0,0,0,0,0,,,,,,,,
1634343593.55563998,44360,0.0010817504953593016,0.0008500420954078436,-0.12299786508083344,0.000241464760620147,0.0002622575266286731,0.00030159857124090195,,,,,,,,,,,,,,,,,,,,,,,,,,
1634343593.56074381,,,,,,,,44360582,0,1500,1500,1000,1500,0,0,0,0,0,0,0,0,0,0,0,0,,,,,,,,
1634343593.81488800,44620,0.0010924662929028273,0.0008561921422369778,-0.12299512326717377,0.00027885203598998487,0.00020693393889814615,0.00020475828205235302,,,,,,,,,,,,,,,,,,,,,,,,,,
1634343593.81780005,,,,,,,,44620478,0,1500,1500,1000,1500,0,0,0,0,0,0,0,0,0,0,0,0,,,,,,,,
1634343594.05554390,44860,0.0011018827790394425,0.0008578587439842522,-0.12299349159002304,0.0003247979038860649,0.0002494958753231913,0.00023607927141711116,,,,,,,,,,,,,,,,,,,,,,,,,,
1634343594.05846786,,,,,,,,44860382,0,1500,1500,1000,1500,0,0,0,0,0,0,0,0,0,0,0,0,,,,,,,,
1634343594.31309986,45120,0.0011093707289546728,0.0008587620686739683,-0.12299253791570663,0.00030633408459834754,0.00020261126337572932,0.0002396780764684081,,,,,,,,,,,,,,,,,,,,,,,,,,
1634343594.31616402,,,,,,,,45120278,0,1500,1500,1000,1500,0,0,0,0,0,0,0,0,0,0,0,0,,,,,,,,
1634343594.55545187,45360,0.0011123388539999723,0.0008621468441560864,-0.12298748642206192,0.00026435116888023913,0.00029268881189636886,0.00026391303981654346,,,,,,,,,,,,,,,,,,,,,,,,,,
1634343594.55875182,,,,,,,,45360182,0,1500,1500,1000,1500,0,0,0,0,0,0,0,0,0,0,0,0,,,,,,,,
1634343594.81636786,45620,0.001115766353905201,0.0008724667131900787,-0.12298654019832611,0.0003317343071103096,0.0002852040925063193,0.00018698073108680546,,,,,,,,,,,,,,,,,,,,,,,,,,
1634343594.81918383,,,,,,,,45620911,0,1500,1500,1000,1500,0,0,0,0,0,0,0,0,0,0,0,0,,,,,,,,
1634343595.05679202,45860,0.0011177873238921165,0.0008752095163799822,-0.12298357486724854,0.00029939677915535867,0.00022013919078744948,0.0002270675904583186,,,,,,,,,,,,,,,,,,,,,,,,,,
1634343595.05985999,,,,,,,,45860815,0,1500,1500,1000,1500,0,0,0,0,0,0,0,0,0,0,0,0,,,,,,,,
1634343595.31188798,46120,0.001126104616560042,0.0008746286039240658,-0.122983418405056,0.0002557851548772305,0.0002491587365511805,0.0002640164748299867,,,,,,,,,,,,,,,,,,,,,,,,,,
1634343595.31473184,,,,,,,,46120711,0,1500,1500,1000,1500,0,0,0,0,0,0,0,0,0,0,0,0,,,,,,,,
1634343595.55331993,46360,0.0011336097959429026,0.0008743892540223897,-0.1229805201292038,0.0002846184652298689,0.00021519078291021287,0.00027639378095045686,,,,,,,,,,,,,,,,,,,,,,,,,,
1634343595.55640793,,,,,,,,46360615,0,1500,1500,1000,1500,0,0,0,0,0,0,0,0,0,0,0,0,,,,,,,,
1634343595.81185603,46620,0.0011385278776288033,0.0008789440034888685,-0.12297472357749939,0.0003114714927505702,0.00028914466383866966,0.00018207583343610168,,,,,,,,,,,,,,,,,,,,,,,,,,
1634343595.81483603,,,,,,,,46620511,0,1500,1500,1000,1500,0,0,0,0,0,0,0,0,0,0,0,0,,,,,,,,
1634343596.05264783,46860,0.0011444498086348176,0.0008841950912028551,-0.12297233939170837,0.0002968059270642698,0.00025501486379653215,0.00025020213797688484,,,,,,,,,,,,,,,,,,,,,,,,,,
1634343596.05560803,,,,,,,,46860415,0,1500,1500,1000,1500,0,0,0,0,0,0,0,0,0,0,0,0,,,,,,,,
1634343596.31250381,47120,0.0011395891197025776,0.0008885205024853349,-0.12296909838914871,0.000249534408794716,0.000238217122387141,0.0001587123260833323,,,,,,,,,,,,,,,,,,,,,,,,,,
1634343596.31543589,,,,,,,,47120311,0,1500,1500,1000,1500,0,0,0,0,0,0,0,0,0,0,0,0,,,,,,,,
1634343596.55675602,47360,0.0011432383907958865,0.0008946563466452062,-0.12296482175588608,0.00037594366585835814,0.0002111400244757533,0.00027427866007201374,,,,,,,,,,,,,,,,,,,,,,,,,,
1634343596.55990386,,,,,,,,47360215,0,1500,1500,1000,1500,0,0,0,0,0,0,0,0,0,0,0,0,,,,,,,,
1634343596.81365204,47620,0.0011504801223054528,0.0009074662812054157,-0.12295737862586975,0.0002845955896191299,0.00027677378966473043,0.0002772271109279245,,,,,,,,,,,,,,,,,,,,,,,,,,
1634343596.81698799,,,,,,,,47620944,0,1500,1500,1000,1500,0,0,0,0,0,0,0,0,0,0,0,0,,,,,,,,
1634343597.05656791,47860,0.0011571099748834968,0.0009135007276199758,-0.12295721471309662,0.000295397883746773,0.00031085891532711685,0.0002539425913710147,,,,,,,,,,,,,,,,,,,,,,,,,,
1634343597.06035590,,,,,,,,47860848,0,1500,1500,1000,1500,0,0,0,0,0,0,0,0,0,0,0,0,,,,,,,,
1634343597.31798387,48120,0.0011600953293964267,0.0009150304831564426,-0.12295719236135483,0.00022992133744992316,0.00028131093131378293,0.00018606166122481227,,,,,,,,,,,,,,,,,,,,,,,,,,
1634343597.32094383,,,,,,,,48120744,0,1500,1500,1000,1500,0,0,0,0,0,0,0,0,0,0,0,0,,,,,,,,
1634343597.55338788,48360,0.0011657129507511854,0.0009202996734529734,-0.12295056879520416,0.0002704593352973461,0.0002888207382056862,0.00019428343512117863,,,,,,,,,,,,,,,,,,,,,,,,,,
1634343597.55665994,,,,,,,,48360648,0,1500,1500,1000,1500,0,0,0,0,0,0,0,0,0,0,0,0,,,,,,,,
1634343597.81696391,48620,0.0011740593472495675,0.0009262231178581715,-0.122941754758358,0.0002816578489728272,0.00021472034859471023,0.00023309604148380458,,,,,,,,,,,,,,,,,,,,,,,,,,
1634343597.81993604,,,,,,,,48620544,0,1500,1500,1000,1500,0,0,0,0,0,0,0,0,0,0,0,0,,,,,,,,
1634343598.05673194,48860,0.0011854723561555147,0.0009406949393451214,-0.12292896211147308,0.00031249664607457817,0.0002630687376949936,0.00026730090030469,,,,,,,,,,,,,,,,,,,,,,,,,,
1634343598.05965590,,,,,,,,48860448,0,1500,1500,1000,1500,0,0,0,0,0,0,0,0,0,0,0,0,,,,,,,,
1634343598.31446004,49120,0.0012086244532838464,0.0009654374443925917,-0.12291918694972992,0.00027034085360355675,0.00024701829534024,0.0002709050022531301,,,,,,,,,,,,,,,,,,,,,,,,,,
1634343598.31777191,,,,,,,,49120344,0,1500,1500,1000,1500,0,0,0,0,0,0,0,0,0,0,0,0,,,,,,,,
1634343598.55447602,49360,0.001235945150256157,0.0009931542444974184,-0.12291889637708664,0.0003205731918569654,0.0002684553910512477,0.00020580514683388174,,,,,,,,,,,,,,,,,,,,,,,,,,
1634343598.55748796,,,,,,,,49360248,0,1500,1500,1000,1500,0,0,0,0,0,0,0,0,0,0,0,0,,,,,,,,
1634343598.81275582,49620,0.0012806692393496633,0.0010384729830548167,-0.12291800230741501,0.0003146063827443868,0.00022633493063040078,0.00021590408869087696,,,,,,,,,,,,,,,,,,,,,,,,,,
1634343598.82006383,,,,,,,,49620977,0,1500,1500,1000,1500,0,0,0,0,0,0,0,0,0,0,0,0,,,,,,,,
1634343599.05755591,49860,0.0013256727252155542,0.0010854704305529594,-0.12291312962770462,0.0003044061304535717,0.00025985093088820577,0.0002705864899326116,,,,,,,,,,,,,,,,,,,,,,,,,,
1634343599.05979991,,,,,,,,,,,,,,,,,,,,,,,,,,0.0,14.989999771118164,-7,-7,0,28.18000030517578,-2.2061703205108643,0.0
1634343599.06115198,,,,,,,,49860881,0,1500,1900,1000,1500,0,0,0,0,0,0,0,0,0,0,0,0,,,,,,,,
