timestamp,ATTITUDE.time_boot_ms,ATTITUDE.roll,ATTITUDE.pitch,ATTITUDE.yaw,ATTITUDE.rollspeed,ATTITUDE.pitchspeed,ATTITUDE.yawspeed,SERVO_OUTPUT_RAW.time_usec,SERVO_OUTPUT_RAW.port,SERVO_OUTPUT_RAW.servo1_raw,SERVO_OUTPUT_RAW.servo2_raw,SERVO_OUTPUT_RAW.servo3_raw,SERVO_OUTPUT_RAW.servo4_raw,SERVO_OUTPUT_RAW.servo5_raw,SERVO_OUTPUT_RAW.servo6_raw,SERVO_OUTPUT_RAW.servo7_raw,SERVO_OUTPUT_RAW.servo8_raw,SERVO_OUTPUT_RAW.servo9_raw,SERVO_OUTPUT_RAW.servo10_raw,SERVO_OUTPUT_RAW.servo11_raw,SERVO_OUTPUT_RAW.servo12_raw,SERVO_OUTPUT_RAW.servo13_raw,SERVO_OUTPUT_RAW.servo14_raw,SERVO_OUTPUT_RAW.servo15_raw,SERVO_OUTPUT_RAW.servo16_raw,NAV_CONTROLLER_OUTPUT.nav_roll,NAV_CONTROLLER_OUTPUT.nav_pitch,NAV_CONTROLLER_OUTPUT.nav_bearing,NAV_CONTROLLER_OUTPUT.target_bearing,NAV_CONTROLLER_OUTPUT.wp_dist,NAV_CONTROLLER_OUTPUT.alt_error,NAV_CONTROLLER_OUTPUT.aspd_error,NAV_CONTROLLER_OUTPUT.xtrack_error
1634177378.99710393,,,,,,,,200753,0,1500,1500,1000,1500,1000,1000,1000,1000,0,0,0,0,0,0,0,0,,,,,,,,
1634177379.00996804,,,,,,,,221578,0,1500,1500,1000,1500,1000,1000,1000,1000,0,0,0,0,0,0,0,0,,,,,,,,
1634177379.01386404,,,,,,,,242403,0,1500,1500,1000,1500,1000,1000,1000,1000,0,0,0,0,0,0,0,0,,,,,,,,
1634177379.01424789,,,,,,,,263228,0,1500,1500,1000,1500,1000,1000,1000,1000,0,0,0,0,0,0,0,0,,,,,,,,
1634177379.01492381,,,,,,,,284053,0,1500,1500,1000,1500,1000,1000,1000,1000,0,0,0,0,0,0,0,0,,,,,,,,
1634177379.01528382,,,,,,,,304878,0,1500,1500,1000,1500,1000,1000,1000,1000,0,0,0,0,0,0,0,0,,,,,,,,
1634177379.01570392,,,,,,,,325703,0,1500,1500,1000,1500,1000,1000,1000,1000,0,0,0,0,0,0,0,0,,,,,,,,
1634177379.02419186,,,,,,,,346528,0,1500,1500,1000,1500,1000,1000,1000,1000,0,0,0,0,0,0,0,0,,,,,,,,
1634177379.02460384,,,,,,,,367353,0,1500,1500,1000,1500,1000,1000,1000,1000,0,0,0,0,0,0,0,0,,,,,,,,
1634177379.02502394,,,,,,,,388178,0,1500,1500,1000,1500,1000,1000,1000,1000,0,0,0,0,0,0,0,0,,,,,,,,
1634177379.02689600,,,,,,,,409003,0,1500,1500,1000,1500,1000,1000,1000,1000,0,0,0,0,0,0,0,0,,,,,,,,
1634177379.02714801,,,,,,,,429828,0,1500,1500,1000,1500,1000,1000,1000,1000,0,0,0,0,0,0,0,0,,,,,,,,
1634177379.02751184,,,,,,,,450653,0,1500,1500,1000,1500,1000,1000,1000,1000,0,0,0,0,0,0,0,0,,,,,,,,
1634177379.03113604,,,,,,,,471478,0,1500,1500,1000,1500,1000,1000,1000,1000,0,0,0,0,0,0,0,0,,,,,,,,
1634177379.03154802,,,,,,,,492303,0,1500,1500,1000,1500,1000,1000,1000,1000,0,0,0,0,0,0,0,0,,,,,,,,
1634177379.03191590,,,,,,,,513128,0,1500,1500,1000,1500,1000,1000,1000,1000,0,0,0,0,0,0,0,0,,,,,,,,
1634177379.03340793,,,,,,,,533953,0,1500,1500,1000,1500,1000,1000,1000,1000,0,0,0,0,0,0,0,0,,,,,,,,
1634177379.03392792,,,,,,,,554778,0,1500,1500,1000,1500,1000,1000,1000,1000,0,0,0,0,0,0,0,0,,,,,,,,
1634177379.03427601,,,,,,,,575603,0,1500,1500,1000,1500,1000,1000,1000,1000,0,0,0,0,0,0,0,0,,,,,,,,
1634177379.04325199,,,,,,,,596428,0,1500,1500,1000,1500,1000,1000,1000,1000,0,0,0,0,0,0,0,0,,,,,,,,
1634177379.05019999,,,,,,,,617253,0,1500,1500,1000,1500,1000,1000,1000,1000,0,0,0,0,0,0,0,0,,,,,,,,
1634177379.05206394,,,,,,,,638078,0,1500,1500,1000,1500,1000,1000,1000,1000,0,0,0,0,0,0,0,0,,,,,,,,
1634177379.05231190,,,,,,,,658903,0,1500,1500,1000,1500,1000,1000,1000,1000,0,0,0,0,0,0,0,0,,,,,,,,
1634177379.05257988,,,,,,,,679728,0,1500,1500,1000,1500,1000,1000,1000,1000,0,0,0,0,0,0,0,0,,,,,,,,
1634177379.05284381,,,,,,,,700553,0,1500,1500,1000,1500,1000,1000,1000,1000,0,0,0,0,0,0,0,0,,,,,,,,
1634177379.05675197,,,,,,,,721378,0,1500,1500,1000,1500,1000,1000,1000,1000,0,0,0,0,0,0,0,0,,,,,,,,
1634177379.05700803,,,,,,,,742203,0,1500,1500,1000,1500,1000,1000,1000,1000,0,0,0,0,0,0,0,0,,,,,,,,
1634177379.05823183,,,,,,,,763028,0,1500,1500,1000,1500,1000,1000,1000,1000,0,0,0,0,0,0,0,0,,,,,,,,
1634177379.05848002,,,,,,,,783853,0,1500,1500,1000,1500,1000,1000,1000,1000,0,0,0,0,0,0,0,0,,,,,,,,
1634177379.05875587,,,,,,,,804678,0,1500,1500,1000,1500,1000,1000,1000,1000,0,0,0,0,0,0,0,0,,,,,,,,
1634177379.06313992,,,,,,,,825503,0,1500,1500,1000,1500,1000,1000,1000,1000,0,0,0,0,0,0,0,0,,,,,,,,
1634177379.06404400,,,,,,,,846328,0,1500,1500,1000,1500,1000,1000,1000,1000,0,0,0,0,0,0,0,0,,,,,,,,
1634177379.06429982,,,,,,,,867153,0,1500,1500,1000,1500,1000,1000,1000,1000,0,0,0,0,0,0,0,0,,,,,,,,
1634177379.06454396,,,,,,,,887978,0,1500,1500,1000,1500,1000,1000,1000,1000,0,0,0,0,0,0,0,0,,,,,,,,
1634177379.06478786,,,,,,,,908803,0,1500,1500,1000,1500,1000,1000,1000,1000,0,0,0,0,0,0,0,0,,,,,,,,
1634177379.06626391,,,,,,,,929628,0,1500,1500,1000,1500,1000,1000,1000,1000,0,0,0,0,0,0,0,0,,,,,,,,
1634177379.06650400,,,,,,,,950453,0,1500,1500,1000,1500,1000,1000,1000,1000,0,0,0,0,0,0,0,0,,,,,,,,
1634177379.06674385,,,,,,,,971278,0,1500,1500,1000,1500,1000,1000,1000,1000,0,0,0,0,0,0,0,0,,,,,,,,
1634177379.06699991,,,,,,,,992103,0,1500,1500,1000,1500,1000,1000,1000,1000,0,0,0,0,0,0,0,0,,,,,,,,
1634177379.07062793,,,,,,,,1012928,0,1500,1500,1000,1500,1000,1000,1000,1000,0,0,0,0,0,0,0,0,,,,,,,,
1634177379.07461190,,,,,,,,1033753,0,1500,1500,1000,1500,1000,1000,1000,1000,0,0,0,0,0,0,0,0,,,,,,,,
1634177379.08530402,,,,,,,,1054578,0,1500,1500,1000,1500,1000,1000,1000,1000,0,0,0,0,0,0,0,0,,,,,,,,
1634177379.08921194,,,,,,,,1075403,0,1500,1500,1000,1500,1000,1000,1000,1000,0,0,0,0,0,0,0,0,,,,,,,,
1634177379.08946395,,,,,,,,1096228,0,1500,1500,1000,1500,1000,1000,1000,1000,0,0,0,0,0,0,0,0,,,,,,,,
1634177379.08975983,,,,,,,,1117053,0,1500,1500,1000,1500,1000,1000,1000,1000,0,0,0,0,0,0,0,0,,,,,,,,
1634177379.09003186,,,,,,,,1137878,0,1500,1500,1000,1500,1000,1000,1000,1000,0,0,0,0,0,0,0,0,,,,,,,,
1634177379.09210801,,,,,,,,1158703,0,1500,1500,1000,1500,1000,1000,1000,1000,0,0,0,0,0,0,0,0,,,,,,,,
1634177379.09236789,,,,,,,,1179528,0,1500,1500,1000,1500,1000,1000,1000,1000,0,0,0,0,0,0,0,0,,,,,,,,
1634177379.09263182,,,,,,,,1200353,0,1500,1500,1000,1500,1000,1000,1000,1000,0,0,0,0,0,0,0,0,,,,,,,,
1634177379.10211587,,,,,,,,1221178,0,1500,1500,1000,1500,1000,1000,1000,1000,0,0,0,0,0,0,0,0,,,,,,,,
1634177379.10687995,,,,,,,,1242003,0,1500,1500,1000,1500,1000,1000,1000,1000,0,0,0,0,0,0,0,0,,,,,,,,
1634177379.10724783,,,,,,,,1262828,0,1500,1500,1000,1500,1000,1000,1000,1000,0,0,0,0,0,0,0,0,,,,,,,,
1634177379.10753584,,,,,,,,1283653,0,1500,1500,1000,1500,1000,1000,1000,1000,0,0,0,0,0,0,0,0,,,,,,,,
1634177379.12730789,,,,,,,,1304478,0,1500,1500,1000,1500,1000,1000,1000,1000,0,0,0,0,0,0,0,0,,,,,,,,
1634177379.12772799,,,,,,,,1325303,0,1500,1500,1000,1500,1000,1000,1000,1000,0,0,0,0,0,0,0,0,,,,,,,,
1634177379.12894797,,,,,,,,1346128,0,1500,1500,1000,1500,1000,1000,1000,1000,0,0,0,0,0,0,0,0,,,,,,,,
1634177379.12934804,,,,,,,,1366953,0,1500,1500,1000,1500,1000,1000,1000,1000,0,0,0,0,0,0,0,0,,,,,,,,
1634177379.12961984,,,,,,,,1387778,0,1500,1500,1000,1500,1000,1000,1000,1000,0,0,0,0,0,0,0,0,,,,,,,,
1634177379.12987995,,,,,,,,1408603,0,1500,1500,1000,1500,1000,1000,1000,1000,0,0,0,0,0,0,0,0,,,,,,,,
1634177379.13053989,,,,,,,,1429428,0,1500,1500,1000,1500,1000,1000,1000,1000,0,0,0,0,0,0,0,0,,,,,,,,
1634177379.13079190,,,,,,,,1450253,0,1500,1500,1000,1500,1000,1000,1000,1000,0,0,0,0,0,0,0,0,,,,,,,,
1634177379.13107204,,,,,,,,1471078,0,1500,1500,1000,1500,1000,1000,1000,1000,0,0,0,0,0,0,0,0,,,,,,,,
1634177379.13316393,,,,,,,,1491903,0,1500,1500,1000,1500,1000,1000,1000,1000,0,0,0,0,0,0,0,0,,,,,,,,
1634177379.13345194,,,,,,,,1512728,0,1500,1500,1000,1500,1000,1000,1000,1000,0,0,0,0,0,0,0,0,,,,,,,,
1634177379.13385987,,,,,,,,1533553,0,1500,1500,1000,1500,1000,1000,1000,1000,0,0,0,0,0,0,0,0,,,,,,,,
1634177379.13419604,,,,,,,,1554378,0,1500,1500,1000,1500,1000,1000,1000,1000,0,0,0,0,0,0,0,0,,,,,,,,
1634177379.13443995,,,,,,,,1575203,0,1500,1500,1000,1500,1000,1000,1000,1000,0,0,0,0,0,0,0,0,,,,,,,,
1634177379.13467598,,,,,,,,1596028,0,1500,1500,1000,1500,1000,1000,1000,1000,0,0,0,0,0,0,0,0,,,,,,,,
1634177379.13491201,,,,,,,,1616853,0,1500,1500,1000,1500,1000,1000,1000,1000,0,0,0,0,0,0,0,0,,,,,,,,
1634177379.13709998,,,,,,,,1637678,0,1500,1500,1000,1500,1000,1000,1000,1000,0,0,0,0,0,0,0,0,,,,,,,,
1634177379.13737202,,,,,,,,1658503,0,1500,1500,1000,1500,1000,1000,1000,1000,0,0,0,0,0,0,0,0,,,,,,,,
1634177379.13761592,,,,,,,,1679328,0,1500,1500,1000,1500,1000,1000,1000,1000,0,0,0,0,0,0,0,0,,,,,,,,
1634177379.13788795,,,,,,,,1700153,0,1500,1500,1000,1500,1000,1000,1000,1000,0,0,0,0,0,0,0,0,,,,,,,,
1634177379.14362001,1800,-0.00037689044256694615,8.424223779002205e-05,8.287303899123799e-06,-2.237020271422807e-05,-8.291758422274143e-05,5.721473280573264e-05,,,,,,,,,,,,,,,,,,,,,,,,,,
1634177379.14980793,,,,,,,,1800946,0,1500,1500,1000,1500,0,0,0,0,0,0,0,0,0,0,0,0,,,,,,,,
1634177379.16185188,2040,-0.0001827749947551638,-0.0009408541955053806,-0.34230899810791016,1.5588053429382853e-05,0.00010051373828900978,9.353439236292616e-05,,,,,,,,,,,,,,,,,,,,,,,,,,
1634177379.16668797,,,,,,,,2040850,0,1500,1500,1000,1500,0,0,0,0,0,0,0,0,0,0,0,0,,,,,,,,
1634177379.18437600,2300,2.4691265934961848e-05,-0.003564207348972559,-0.3419291377067566,-4.3729523895308375e-05,-2.0003328700113343e-06,3.6032404750585556e-05,,,,,,,,,,,,,,,,,,,,,,,,,,
1634177379.19262004,,,,,,,,2300746,0,1500,1500,1000,1500,0,0,0,0,0,0,0,0,0,0,0,0,,,,,,,,
1634177379.20965600,2540,0.00016001689073164016,-0.0032380162738263607,-0.3415062129497528,-7.804278720868751e-05,4.718772106571123e-05,4.839991106564412e-06,,,,,,,,,,,,,,,,,,,,,,,,,,
1634177379.21534395,,,,,,,,2540650,0,1500,1500,1000,1500,0,0,0,0,0,0,0,0,0,0,0,0,,,,,,,,
1634177379.45986795,2800,0.00023793010041117668,-0.0020646355114877224,-0.3414209485054016,7.762652239762247e-05,8.134902600431815e-06,6.573848077096045e-05,,,,,,,,,,,,,,,,,,,,,,,,,,
1634177379.46237993,,,,,,,,2800546,0,1500,1500,1000,1500,0,0,0,0,0,0,0,0,0,0,0,0,,,,,,,,
1634177379.69621587,3040,0.000247656338615343,-0.0008361221407540143,-0.3416597843170166,0.0001752457901602611,0.00014571224164683372,8.993248047772795e-05,,,,,,,,,,,,,,,,,,,,,,,,,,
1634177379.69858003,,,,,,,,3040450,0,1500,1500,1000,1500,0,0,0,0,0,0,0,0,0,0,0,0,,,,,,,,
1634177379.95532393,3300,0.00022586164413951337,0.00013482818030752242,-0.3421172499656677,0.00017421954544261098,0.0001237561518792063,-2.3153683287091553e-05,,,,,,,,,,,,,,,,,,,,,,,,,,
1634177379.95806003,,,,,,,,3300346,0,1500,1500,1000,1500,0,0,0,0,0,0,0,0,0,0,0,0,,,,,,,,
1634177380.87824392,4220,0.00012324748968239874,0.00016506851534359157,-0.3431829810142517,0.00013906179810874164,-4.6488523366861045e-05,-2.4012588255573064e-05,,,,,,,,,,,,,,,,,,,,,,,,,,
1634177380.88082004,,,,,,,,4220811,0,1500,1500,1000,1500,0,0,0,0,0,0,0,0,0,0,0,0,,,,,,,,
1634177381.13899183,4480,0.0001368034427287057,-2.9167636967031285e-05,-0.3432202637195587,3.910694795195013e-05,-1.3109073506711866e-06,2.9561844712588936e-05,,,,,,,,,,,,,,,,,,,,,,,,,,
1634177381.14199591,,,,,,,,4480707,0,1500,1500,1000,1500,0,0,0,0,0,0,0,0,0,0,0,0,,,,,,,,
1634177381.37818789,4720,0.00015452367370016873,-0.00013141700765118003,-0.3432135581970215,-7.60647537845216e-07,0.00015544726920779794,0.0001669857301749289,,,,,,,,,,,,,,,,,,,,,,,,,,
1634177381.38099599,,,,,,,,4720611,0,1500,1500,1000,1500,0,0,0,0,0,0,0,0,0,0,0,0,,,,,,,,
1634177381.63798404,4980,0.0001636865927139297,-0.00016496425087098032,-0.34319478273391724,-9.492351091466844e-05,6.457779090851545e-05,-2.4807030058582313e-05,,,,,,,,,,,,,,,,,,,,,,,,,,
1634177381.64071202,,,,,,,,4980507,0,1500,1500,1000,1500,0,0,0,0,0,0,0,0,0,0,0,0,,,,,,,,
1634177381.87797999,5220,0.000171003513969481,-0.00015378708485513926,-0.3431902229785919,2.6453015379956923e-05,2.204304291808512e-05,-3.760460822377354e-05,,,,,,,,,,,,,,,,,,,,,,,,,,
1634177381.88059592,,,,,,,,5220411,0,1500,1500,1000,1500,0,0,0,0,0,0,0,0,0,0,0,0,,,,,,,,
1634177382.13707590,5480,0.00015364274440798908,-0.00011567592446226627,-0.3431883752346039,7.232525967992842e-05,0.00010916312749031931,0.0001536866620881483,,,,,,,,,,,,,,,,,,,,,,,,,,
1634177382.13993597,,,,,,,,5480307,0,1500,1500,1000,1500,0,0,0,0,0,0,0,0,0,0,0,0,,,,,,,,
1634177382.37736392,5720,0.00014786665269639343,-8.45316462800838e-05,-0.3431839346885681,9.091823449125513e-05,6.337656668620184e-05,-4.987783540855162e-06,,,,,,,,,,,,,,,,,,,,,,,,,,
1634177382.38020802,,,,,,,,5720211,0,1500,1500,1000,1500,0,0,0,0,0,0,0,0,0,0,0,0,,,,,,,,
1634177382.63784003,5980,0.00012723644613288343,-4.696147152571939e-05,-0.3431854546070099,0.00014374977035913616,0.00023760863405186683,-1.315177996730199e-05,,,,,,,,,,,,,,,,,,,,,,,,,,
1634177382.64076400,,,,,,,,5980940,0,1500,1500,1000,1500,0,0,0,0,0,0,0,0,0,0,0,0,,,,,,,,
1634177382.87598801,6220,0.00013038412726018578,-2.8517020837171003e-05,-0.3431813418865204,-2.081440470647067e-05,0.00010039158951258287,0.00010429800749989226,,,,,,,,,,,,,,,,,,,,,,,,,,
1634177382.87841988,,,,,,,,6220844,0,1500,1500,1000,1500,0,0,0,0,0,0,0,0,0,0,0,0,,,,,,,,
1634177383.13755584,6480,0.00017565148300491273,-2.0077488443348557e-05,-0.34319809079170227,5.291859633871354e-05,9.188536205329001e-05,6.152567220851779e-05,,,,,,,,,,,,,,,,,,,,,,,,,,
1634177383.14046383,,,,,,,,6480740,0,1500,1500,1000,1500,0,0,0,0,0,0,0,0,0,0,0,0,,,,,,,,
1634177383.37823582,6720,0.00021025286696385592,-1.4913050108589232e-05,-0.3432285189628601,8.198287105187774e-06,0.00012340159446466714,3.827989348792471e-05,,,,,,,,,,,,,,,,,,,,,,,,,,
1634177383.38072801,,,,,,,,6720644,0,1500,1500,1000,1500,0,0,0,0,0,0,0,0,0,0,0,0,,,,,,,,
1634177383.63657999,6980,0.0002317512407898903,4.681038717535557e-06,-0.3432765305042267,6.392762588802725e-05,0.00010118960926774889,9.69564207480289e-05,,,,,,,,,,,,,,,,,,,,,,,,,,
1634177383.63924003,,,,,,,,6980540,0,1500,1500,1000,1500,0,0,0,0,0,0,0,0,0,0,0,0,,,,,,,,
1634177383.87987995,7220,0.00022119167260825634,-9.58840359999158e-07,-0.3433166444301605,6.402227882063016e-05,0.00010423074854770675,4.04331658501178e-05,,,,,,,,,,,,,,,,,,,,,,,,,,
1634177383.88254404,,,,,,,,7220444,0,1500,1500,1000,1500,0,0,0,0,0,0,0,0,0,0,0,0,,,,,,,,
1634177384.13568401,7480,0.00022967868426349014,3.2347328669857234e-05,-0.34334853291511536,4.0208076825365424e-05,0.00013316277181729674,0.0001676969404798001,,,,,,,,,,,,,,,,,,,,,,,,,,
1634177384.13891196,,,,,,,,7480340,0,1500,1500,1000,1500,0,0,0,0,0,0,0,0,0,0,0,0,,,,,,,,
1634177384.38160396,7720,0.00021423866564873606,6.892011697345879e-06,-0.3433762490749359,0.00014612705854233354,-5.1034974603680894e-05,0.0001485685643274337,,,,,,,,,,,,,,,,,,,,,,,,,,
1634177384.38448381,,,,,,,,7720244,0,1500,1500,1000,1500,0,0,0,0,0,0,0,0,0,0,0,0,,,,,,,,
1634177384.63875985,7980,0.00019529377459548414,-1.0743708116933703e-05,-0.3433683216571808,0.00010557605128269643,9.93970752460882e-05,0.00016087846597656608,,,,,,,,,,,,,,,,,,,,,,,,,,
1634177384.64167595,,,,,,,,7980973,0,1500,1500,1000,1500,0,0,0,0,0,0,0,0,0,0,0,0,,,,,,,,
1634177384.87830400,8220,0.0001756689016474411,-1.5669525964767672e-05,-0.3136546015739441,-9.185285307466984e-06,0.00021480068971868604,0.00025826736236922443,,,,,,,,,,,,,,,,,,,,,,,,,,
1634177384.88184786,,,,,,,,8220877,0,1500,1500,1000,1500,0,0,0,0,0,0,0,0,0,0,0,0,,,,,,,,
1634177385.13712382,8480,0.00018427752365823835,-1.5490904843318276e-05,-0.2536415755748749,6.744544953107834e-05,0.00016543001402169466,0.00011455790809122846,,,,,,,,,,,,,,,,,,,,,,,,,,
1634177385.13987994,,,,,,,,8480773,0,1500,1500,1000,1500,0,0,0,0,0,0,0,0,0,0,0,0,,,,,,,,
1634177385.37698388,8720,0.00018026030738838017,-2.684198807401117e-05,-0.21504715085029602,0.00013214994396548718,0.00030542034073732793,0.00010110808943863958,,,,,,,,,,,,,,,,,,,,,,,,,,
1634177385.38024783,,,,,,,,8720677,0,1500,1500,1000,1500,0,0,0,0,0,0,0,0,0,0,0,0,,,,,,,,
1634177385.63607192,8980,0.0001835002185543999,-9.47176795307314e-06,-0.18588335812091827,0.00023270912060979754,0.00015203646034933627,1.830555083870422e-05,,,,,,,,,,,,,,,,,,,,,,,,,,
1634177385.66649604,,,,,,,,8980573,0,1500,1500,1000,1500,0,0,0,0,0,0,0,0,0,0,0,0,,,,,,,,
1634177385.87773585,9220,0.00019936815078835934,2.4269406821986195e-06,-0.16718728840351105,0.0001960027584573254,0.0002590547373984009,0.00026802043430507183,,,,,,,,,,,,,,,,,,,,,,,,,,
1634177385.88838792,,,,,,,,9220477,0,1500,1500,1000,1500,0,0,0,0,0,0,0,0,0,0,0,0,,,,,,,,
1634177386.14067984,9480,0.00021085863409098238,-8.106199857138563e-06,-0.15311114490032196,9.11172537598759e-05,0.0002206996432505548,3.540832767612301e-05,,,,,,,,,,,,,,,,,,,,,,,,,,
1634177386.14393997,,,,,,,,9480373,0,1500,1500,1000,1500,0,0,0,0,0,0,0,0,0,0,0,0,,,,,,,,
1634177386.37667584,9720,0.0002086448948830366,-1.2591907761816401e-05,-0.14409492909908295,7.349161023739725e-05,0.00016267895989585668,8.205044287024066e-05,,,,,,,,,,,,,,,,,,,,,,,,,,
1634177386.37959599,,,,,,,,9720277,0,1500,1500,1000,1500,0,0,0,0,0,0,0,0,0,0,0,0,,,,,,,,
1634177386.63903999,9980,0.0002042967826128006,-2.3579716071253642e-05,-0.13728223741054535,6.272677273955196e-05,0.000267649331362918,0.00013551759184338152,,,,,,,,,,,,,,,,,,,,,,,,,,
1634177386.64198804,,,,,,,,9980173,0,1500,1500,1000,1500,0,0,0,0,0,0,0,0,0,0,0,0,,,,,,,,
1634177386.87907982,10220,0.00021043812739662826,-1.4677303624921478e-05,-0.13291041553020477,0.00019274285295978189,9.547570516588166e-05,0.00023897195933386683,,,,,,,,,,,,,,,,,,,,,,,,,,
1634177386.88204384,,,,,,,,10220910,0,1500,1500,1000,1500,0,0,0,0,0,0,0,0,0,0,0,0,,,,,,,,
1634177387.13725185,10480,0.0002202721661888063,1.1838779755635187e-05,-0.12963183224201202,0.0002900761610362679,0.00013569380098488182,0.00012646985123865306,,,,,,,,,,,,,,,,,,,,,,,,,,
1634177387.14038396,,,,,,,,10480806,0,1500,1500,1000,1500,0,0,0,0,0,0,0,0,0,0,0,0,,,,,,,,
1634177387.37640381,10720,0.00022113807790447026,1.4043313058209606e-05,-0.12754365801811218,2.8529586415970698e-05,0.00022420626191888005,0.00015870769857428968,,,,,,,,,,,,,,,,,,,,,,,,,,
1634177387.37930799,,,,,,,,10720710,0,1500,1500,1000,1500,0,0,0,0,0,0,0,0,0,0,0,0,,,,,,,,
1634177387.63882804,10980,0.00022493336291518062,-6.10251026955666e-06,-0.12595723569393158,0.00020459889492485672,0.00022815578267909586,9.623490768717602e-05,,,,,,,,,,,,,,,,,,,,,,,,,,
1634177387.64210796,,,,,,,,10980606,0,1500,1500,1000,1500,0,0,0,0,0,0,0,0,0,0,0,0,,,,,,,,
1634177387.88184404,11220,0.0002370683359913528,-4.557528882287443e-06,-0.12495231628417969,0.00021747435675933957,0.00016308313934132457,2.5810819352045655e-05,,,,,,,,,,,,,,,,,,,,,,,,,,
1634177387.88473988,,,,,,,,11220510,0,1500,1500,1000,1500,0,0,0,0,0,0,0,0,0,0,0,0,,,,,,,,
1634177388.14145589,11480,0.000220497211557813,-1.3077096809865907e-05,-0.12418901175260544,0.00019332168449182063,0.0001896792382467538,0.00016383014735765755,,,,,,,,,,,,,,,,,,,,,,,,,,
1634177388.14437199,,,,,,,,11480406,0,1500,1500,1000,1500,0,0,0,0,0,0,0,0,0,0,0,0,,,,,,,,
1634177388.37688398,11720,0.0002205803175456822,-6.601692803087644e-06,-0.12362482398748398,0.0002384261752013117,0.00015975895803421736,0.0008465414866805077,,,,,,,,,,,,,,,,,,,,,,,,,,
1634177388.37977600,,,,,,,,11720310,0,1500,1500,1000,1500,0,0,0,0,0,0,0,0,0,0,0,0,,,,,,,,
1634177388.63777590,11980,0.00021544746414292604,-5.3668481996282935e-06,-0.12310648709535599,0.0001581258256919682,0.00011805922986241058,0.0007769452640786767,,,,,,,,,,,,,,,,,,,,,,,,,,
1634177388.64102793,,,,,,,,11980206,0,1500,1500,1000,1500,0,0,0,0,0,0,0,0,0,0,0,0,,,,,,,,
1634177388.87927604,12220,0.00022236320364754647,8.415558113483712e-06,-0.12276671826839447,0.00012130991672165692,0.00023816112661734223,0.0009376995731145144,,,,,,,,,,,,,,,,,,,,,,,,,,
1634177388.88215590,,,,,,,,12220943,0,1500,1500,1000,1500,0,0,0,0,0,0,0,0,0,0,0,0,,,,,,,,
1634177389.13988400,12480,0.0002379864308750257,8.300413355755154e-06,-0.12252425402402878,0.00021680195641238242,9.761984983924776e-05,0.0008625109912827611,,,,,,,,,,,,,,,,,,,,,,,,,,
1634177389.14285994,,,,,,,,12480839,0,1500,1500,1000,1500,0,0,0,0,0,0,0,0,0,0,0,0,,,,,,,,
1634177389.37950802,12720,0.0002391023881500587,1.461463762097992e-05,-0.12236766517162323,0.00024946712073870003,0.00018782603729050606,0.0008805892430245876,,,,,,,,,,,,,,,,,,,,,,,,,,
1634177389.38277197,,,,,,,,12720743,0,1500,1500,1000,1500,0,0,0,0,0,0,0,0,0,0,0,0,,,,,,,,
1634177389.63735199,12980,0.0002549914934206754,-5.763977242168039e-07,-0.1222580298781395,0.00014739281323272735,0.0001181699990411289,0.000933042902033776,,,,,,,,,,,,,,,,,,,,,,,,,,
1634177389.64075184,,,,,,,,12980639,0,1500,1500,1000,1500,0,0,0,0,0,0,0,0,0,0,0,0,,,,,,,,
1634177389.87819600,13220,0.00025047894450835884,-1.245563180418685e-05,-0.12218578904867172,0.00015601988707203418,4.506293771555647e-05,0.000885877525433898,,,,,,,,,,,,,,,,,,,,,,,,,,
1634177389.88103199,,,,,,,,13220543,0,1500,1500,1000,1500,0,0,0,0,0,0,0,0,0,0,0,0,,,,,,,,
1634177390.13883591,13480,0.0002370336151216179,7.137362445064355e-06,-0.12213160842657089,0.0002966946049127728,0.0002417953364783898,0.0008933823555707932,,,,,,,,,,,,,,,,,,,,,,,,,,
1634177390.14178395,,,,,,,,13480439,0,1500,1500,1000,1500,0,0,0,0,0,0,0,0,0,0,0,0,,,,,,,,
1634177390.37633991,13720,0.00023020086518954486,1.2980925930605736e-05,-0.12208060175180435,0.0001863029901869595,0.000147934551932849,0.0008584216702729464,,,,,,,,,,,,,,,,,,,,,,,,,,
1634177390.37942386,,,,,,,,13720343,0,1500,1500,1000,1500,0,0,0,0,0,0,0,0,0,0,0,0,,,,,,,,
1634177390.63621187,13980,0.0002227793593192473,2.907956877606921e-05,-0.12204668670892715,0.0002766525140032172,0.00022140552755445242,0.0009454151731915772,,,,,,,,,,,,,,,,,,,,,,,,,,
1634177390.63911581,,,,,,,,13980239,0,1500,1500,1000,1500,0,0,0,0,0,0,0,0,0,0,0,0,,,,,,,,
1634177390.87943983,14220,0.0002255754661746323,3.5488224966684356e-05,-0.12203087657690048,7.168020965764299e-05,0.00013884459622204304,0.000799024011939764,,,,,,,,,,,,,,,,,,,,,,,,,,
1634177390.88249588,,,,,,,,14220976,0,1500,1500,1000,1500,0,0,0,0,0,0,0,0,0,0,0,0,,,,,,,,
1634177391.13716793,14480,0.0002288472023792565,3.6330482544144616e-05,-0.12201385945081711,5.1774492021650076e-05,0.0002480542752891779,0.0010419077007099986,,,,,,,,,,,,,,,,,,,,,,,,,,
1634177391.13996387,,,,,,,,14480872,0,1500,1500,1000,1500,0,0,0,0,0,0,0,0,0,0,0,0,,,,,,,,
1634177391.37848783,14720,0.00023898434301372617,6.564651266671717e-05,-0.12200360745191574,7.00860982760787e-05,0.00012603287177626044,0.0010922723449766636,,,,,,,,,,,,,,,,,,,,,,,,,,
1634177391.38117599,,,,,,,,14720776,0,1500,1500,1000,1500,0,0,0,0,0,0,0,0,0,0,0,0,,,,,,,,
1634177391.63685584,14980,0.00024557835422456264,9.080865129362792e-05,-0.12202603369951248,0.00012031878577545285,0.0002646797220222652,0.000945490610320121,,,,,,,,,,,,,,,,,,,,,,,,,,
1634177391.64017582,,,,,,,,14980672,0,1500,1500,1000,1500,0,0,0,0,0,0,0,0,0,0,0,0,,,,,,,,
1634177391.88100386,15220,0.0002519299741834402,7.063471275614575e-05,-0.12203191965818405,0.0003046969068236649,0.00021640644990839064,0.0009003216400742531,,,,,,,,,,,,,,,,,,,,,,,,,,
1634177391.88387203,,,,,,,,15220576,0,1500,1500,1000,1500,0,0,0,0,0,0,0,0,0,0,0,0,,,,,,,,
1634177392.14142394,15480,0.0002451787586323917,5.5067790526663885e-05,-0.12203234434127808,0.0002927274617832154,0.00027291892911307514,0.0008450946770608425,,,,,,,,,,,,,,,,,,,,,,,,,,
1634177392.14427996,,,,,,,,15480472,0,1500,1500,1000,1500,0,0,0,0,0,0,0,0,0,0,0,0,,,,,,,,
1634177392.37987590,15720,0.0002534240484237671,5.55447259102948e-05,-0.12203092128038406,0.00022011085820849985,0.0003134997095912695,0.0010140885133296251,,,,,,,,,,,,,,,,,,,,,,,,,,
1634177392.38292384,,,,,,,,15720376,0,1500,1500,1000,1500,0,0,0,0,0,0,0,0,0,0,0,0,,,,,,,,
1634177392.64019585,15980,0.00025399145670235157,5.115775275044143e-05,-0.1220252513885498,0.00042666838271543384,0.00027247509569860995,0.0010178904049098492,,,,,,,,,,,,,,,,,,,,,,,,,,
1634177392.64317989,,,,,,,,15980272,0,1500,1500,1000,1500,0,0,0,0,0,0,0,0,0,0,0,0,,,,,,,,
1634177392.88127589,16220,0.00023686568601988256,4.1937608330044895e-05,-0.12202505022287369,0.0002352092560613528,0.0002411789755569771,0.000743960146792233,,,,,,,,,,,,,,,,,,,,,,,,,,
1634177392.88397598,,,,,,,,16220176,0,1500,1500,1000,1500,0,0,0,0,0,0,0,0,0,0,0,0,,,,,,,,
1634177393.13773203,16480,0.00024220490013249218,3.030081461474765e-05,-0.12201222777366638,0.0002359437639825046,0.00020785613742191344,0.0009185237577185035,,,,,,,,,,,,,,,,,,,,,,,,,,
1634177393.14064384,,,,,,,,16480905,0,1500,1500,1000,1500,0,0,0,0,0,0,0,0,0,0,0,0,,,,,,,,
1634177393.38058782,16720,0.0002500483824405819,3.379438567208126e-05,-0.1220114529132843,0.0002862302935682237,0.00029717065626755357,0.0007705521420575678,,,,,,,,,,,,,,,,,,,,,,,,,,
1634177393.38353992,,,,,,,,16720809,0,1500,1500,1000,1500,0,0,0,0,0,0,0,0,0,0,0,0,,,,,,,,
1634177393.64047194,16980,0.0002451977343298495,5.4911077313590795e-05,-0.12202100455760956,0.0002935276133939624,0.00020294518617447466,0.0010909289121627808,,,,,,,,,,,,,,,,,,,,,,,,,,
1634177393.64419603,,,,,,,,16980705,0,1500,1500,1000,1500,0,0,0,0,0,0,0,0,0,0,0,0,,,,,,,,
1634177393.88113189,17220,0.00024688534904271364,7.981011731317267e-05,-0.12201625108718872,0.00022417311265598983,0.00019643585255835205,0.0010974835604429245,,,,,,,,,,,,,,,,,,,,,,,,,,
1634177393.88397598,,,,,,,,17220609,0,1500,1500,1000,1500,0,0,0,0,0,0,0,0,0,0,0,0,,,,,,,,
1634177394.13857198,17480,0.00025755175738595426,9.72418492892757e-05,-0.12202615290880203,0.00016191057511605322,0.00016649585450068116,0.0009865821339190006,,,,,,,,,,,,,,,,,,,,,,,,,,
1634177394.14156389,,,,,,,,17480505,0,1500,1500,1000,1500,0,0,0,0,0,0,0,0,0,0,0,0,,,,,,,,
1634177394.37713599,17720,0.00028937883325852454,9.72471316345036e-05,-0.12205411493778229,0.00027217715978622437,0.0003190681163687259,0.0008302631904371083,,,,,,,,,,,,,,,,,,,,,,,,,,
1634177394.38021183,,,,,,,,17720409,0,1500,1500,1000,1500,0,0,0,0,0,0,0,0,0,0,0,0,,,,,,,,
1634177394.64092803,17980,0.00029155192896723747,7.248045585583895e-05,-0.12208421528339386,0.0003444564645178616,0.00012065992632415146,0.0009118238813243806,,,,,,,,,,,,,,,,,,,,,,,,,,
1634177394.64484000,,,,,,,,17980305,0,1500,1500,1000,1500,0,0,0,0,0,0,0,0,0,0,0,0,,,,,,,,
1634177394.87764788,18220,0.000314802338834852,6.252634193515405e-05,-0.12210094928741455,0.0002015455684158951,0.00024345595738850534,0.001021099858917296,,,,,,,,,,,,,,,,,,,,,,,,,,
1634177394.88042402,,,,,,,,18220209,0,1500,1500,1000,1500,0,0,0,0,0,0,0,0,0,0,0,0,,,,,,,,
1634177395.14231586,18480,0.0002964876184705645,2.280581247759983e-05,-0.12212085723876953,0.00020962237613275647,9.601660713087767e-05,0.000991426408290863,,,,,,,,,,,,,,,,,,,,,,,,,,
1634177395.14492798,,,,,,,,18480938,0,1500,1500,1000,1500,0,0,0,0,0,0,0,0,0,0,0,0,,,,,,,,
1634177395.37982798,18720,0.00028966693207621574,2.3248583602253348e-05,-0.12210749834775925,0.00029163301223888993,0.00021875738457310945,0.001016168505884707,,,,,,,,,,,,,,,,,,,,,,,,,,
1634177395.38291192,,,,,,,,18720842,0,1500,1500,1000,1500,0,0,0,0,0,0,0,0,0,0,0,0,,,,,,,,
1634177395.64073992,18980,0.00028199172811582685,4.32774395449087e-05,-0.12210007011890411,0.00022032984998077154,0.00026243459433317184,0.0009169458644464612,,,,,,,,,,,,,,,,,,,,,,,,,,
1634177395.65107203,,,,,,,,18980738,0,1500,1500,1000,1500,0,0,0,0,0,0,0,0,0,0,0,0,,,,,,,,
1634177395.87805200,19220,0.0002789355639833957,5.6895958550740033e-05,-0.1220947653055191,0.00032271354575641453,0.00025665669818408787,0.0010886617237702012,,,,,,,,,,,,,,,,,,,,,,,,,,
1634177395.88063598,,,,,,,,19220642,0,1500,1500,1000,1500,0,0,0,0,0,0,0,0,0,0,0,0,,,,,,,,
1634177396.13795185,19480,0.0003190523129887879,8.787208935245872e-05,-0.1220741719007492,0.00013577657227870077,3.4902855986729264e-05,0.0002008544688578695,,,,,,,,,,,,,,,,,,,,,,,,,,
1634177396.14090395,,,,,,,,19480538,0,1500,1500,1000,1500,0,0,0,0,0,0,0,0,0,0,0,0,,,,,,,,
1634177396.38111997,19720,0.0003319667011965066,0.00010039752669399604,-0.1220846176147461,4.9375390517525375e-05,9.643468365538865e-05,0.00022816236014477909,,,,,,,,,,,,,,,,,,,,,,,,,,
1634177396.38756800,,,,,,,,19720442,0,1500,1500,1000,1500,0,0,0,0,0,0,0,0,0,0,0,0,,,,,,,,
1634177396.64217997,19980,0.0003551185072865337,0.00011580302816582844,-0.1221032440662384,0.00020492465409915894,0.00014316791202872992,0.00016612309264019132,,,,,,,,,,,,,,,,,,,,,,,,,,
1634177396.64635587,,,,,,,,19980338,0,1500,1500,1000,1500,0,0,0,0,0,0,0,0,0,0,0,0,,,,,,,,
1634177396.88113594,20220,0.0003716145292855799,0.00013762162416242063,-0.12211964279413223,0.00014972779899835587,0.0001424898364348337,0.00015617822646163404,,,,,,,,,,,,,,,,,,,,,,,,,,
1634177396.88391590,,,,,,,,20220242,0,1500,1500,1000,1500,0,0,0,0,0,0,0,0,0,0,0,0,,,,,,,,
1634177397.14177203,20480,0.00038751898682676256,0.0001574863272253424,-0.1221441999077797,0.00016659742686897516,5.8300603996030986e-05,0.00021812834893353283,,,,,,,,,,,,,,,,,,,,,,,,,,
1634177397.14462399,,,,,,,,20480971,0,1500,1500,1000,1500,0,0,0,0,0,0,0,0,0,0,0,0,,,,,,,,
1634177397.38152003,20720,0.0003994296712335199,0.00016953326121438295,-0.12216787785291672,0.00017709206440486014,0.00013042011414654553,0.00015508642536588013,,,,,,,,,,,,,,,,,,,,,,,,,,
1634177397.38390398,,,,,,,,20720875,0,1500,1500,1000,1500,0,0,0,0,0,0,0,0,0,0,0,0,,,,,,,,
1634177397.63841987,20980,0.0004061910731252283,0.00017807789845392108,-0.122197225689888,0.00017800815112423152,0.0001340176531812176,0.00013422039046417922,,,,,,,,,,,,,,,,,,,,,,,,,,
1634177397.64162397,,,,,,,,20980771,0,1500,1500,1000,1500,0,0,0,0,0,0,0,0,0,0,0,0,,,,,,,,
1634177397.88161182,21220,0.00041067408164963126,0.00017803613445721567,-0.12222094088792801,0.00010219842079095542,6.820967246312648e-05,0.00015986000653356314,,,,,,,,,,,,,,,,,,,,,,,,,,
1634177397.88461590,,,,,,,,21220675,0,1500,1500,1000,1500,0,0,0,0,0,0,0,0,0,0,0,0,,,,,,,,
1634177398.14211988,21480,0.0003995110164396465,0.00016633840277791023,-0.12224320322275162,0.0001743871544022113,6.625066453125328e-05,0.00015044167230371386,,,,,,,,,,,,,,,,,,,,,,,,,,
1634177398.14484000,,,,,,,,21480571,0,1500,1500,1000,1500,0,0,0,0,0,0,0,0,0,0,0,0,,,,,,,,
1634177398.37984395,21720,0.0003951093531213701,0.00015369556786026806,-0.12225747853517532,0.00012958722072653472,0.00014824671961832792,0.00014155601093079895,,,,,,,,,,,,,,,,,,,,,,,,,,
1634177398.38296795,,,,,,,,21720475,0,1500,1500,1000,1500,0,0,0,0,0,0,0,0,0,0,0,0,,,,,,,,
1634177398.64003181,21980,0.0003849916683975607,0.00014429146540351212,-0.12227347493171692,0.0001242545695276931,7.161476241890341e-05,0.00010670181654859334,,,,,,,,,,,,,,,,,,,,,,,,,,
1634177398.64299989,,,,,,,,21980371,0,1500,1500,1000,1500,0,0,0,0,0,0,0,0,0,0,0,0,,,,,,,,
1634177398.87805581,22220,0.00037991016870364547,0.00013521756045520306,-0.12228795886039734,0.00018635240849107504,0.00010572464088909328,0.00013692665379494429,,,,,,,,,,,,,,,,,,,,,,,,,,
1634177398.88102794,,,,,,,,22220275,0,1500,1500,1000,1500,0,0,0,0,0,0,0,0,0,0,0,0,,,,,,,,
1634177399.14020801,22480,0.0003702962421812117,0.00012246071128174663,-0.12229510396718979,0.00014663246111012995,0.0001742515160003677,0.0001597296359250322,,,,,,,,,,,,,,,,,,,,,,,,,,
1634177399.14371204,,,,,,,,22480171,0,1500,1500,1000,1500,0,0,0,0,0,0,0,0,0,0,0,0,,,,,,,,
1634177399.38042402,22720,0.00036422425182536244,0.00012008201883872971,-0.1222987100481987,0.00011696456931531429,0.0001125644485000521,0.00012025691103190184,,,,,,,,,,,,,,,,,,,,,,,,,,
1634177399.38374400,,,,,,,,22720908,0,1500,1500,1000,1500,0,0,0,0,0,0,0,0,0,0,0,0,,,,,,,,
1634177399.63778782,22980,0.0003643036470748484,0.00011829755385406315,-0.1223030611872673,0.0001421504421159625,9.876882540993392e-05,0.00018386005831416696,,,,,,,,,,,,,,,,,,,,,,,,,,
1634177399.64386392,,,,,,,,22980804,0,1500,1500,1000,1500,0,0,0,0,0,0,0,0,0,0,0,0,,,,,,,,
1634177399.88197994,23220,0.00036191826802678406,0.00012240608339197934,-0.12230520695447922,8.270684338640422e-05,0.00013769282668363303,0.00018662055663298815,,,,,,,,,,,,,,,,,,,,,,,,,,
1634177399.88480783,,,,,,,,23220708,0,1500,1500,1000,1500,0,0,0,0,0,0,0,0,0,0,0,0,,,,,,,,
1634177400.14213586,23480,0.0003615905879996717,0.00011970231571467593,-0.12230449169874191,0.0001286531623918563,0.00010112900054082274,0.00013190126628614962,,,,,,,,,,,,,,,,,,,,,,,,,,
1634177400.14518404,,,,,,,,23480604,0,1500,1500,1000,1500,0,0,0,0,0,0,0,0,0,0,0,0,,,,,,,,
1634177400.38174391,23720,0.00036059864214621484,0.00011623302270891145,-0.12231185287237167,9.272067109122872e-05,3.415445098653436e-05,0.0001626541488803923,,,,,,,,,,,,,,,,,,,,,,,,,,
1634177400.38521600,,,,,,,,23720508,0,1500,1500,1000,1500,0,0,0,0,0,0,0,0,0,0,0,0,,,,,,,,
1634177400.63750792,23980,0.00037004300975240767,0.00011829271534224972,-0.12231595069169998,9.28283843677491e-05,8.363000233657658e-05,0.00014662224566563964,,,,,,,,,,,,,,,,,,,,,,,,,,
1634177400.64057589,,,,,,,,23980404,0,1500,1500,1000,1500,0,0,0,0,0,0,0,0,0,0,0,0,,,,,,,,
1634177400.87824392,24220,0.0003802701539825648,0.00012548157246783376,-0.12231700122356415,0.0002110560453729704,5.068446625955403e-05,7.84650765126571e-05,,,,,,,,,,,,,,,,,,,,,,,,,,
1634177400.88104796,,,,,,,,24220308,0,1500,1500,1000,1500,0,0,0,0,0,0,0,0,0,0,0,0,,,,,,,,
1634177401.13817596,24480,0.0003846022009383887,0.00012887750926893204,-0.12231873720884323,0.00014888177975080907,3.784472937695682e-05,0.00016854621935635805,,,,,,,,,,,,,,,,,,,,,,,,,,
1634177401.14155984,,,,,,,,24480204,0,1500,1500,1000,1500,0,0,0,0,0,0,0,0,0,0,0,0,,,,,,,,
1634177401.38287187,24720,0.0003920409071724862,0.00014033741899766028,-0.12231890112161636,0.00017042573017533869,0.00011668249499052763,0.00019977748161181808,,,,,,,,,,,,,,,,,,,,,,,,,,
1634177401.38588786,,,,,,,,24720941,0,1500,1500,1000,1500,0,0,0,0,0,0,0,0,0,0,0,0,,,,,,,,
1634177401.64148402,24980,0.00040378354606218636,0.0001504484680481255,-0.12231865525245667,0.0002421192330075428,0.00013490402488969266,0.00015143434575293213,,,,,,,,,,,,,,,,,,,,,,,,,,
1634177401.64644003,,,,,,,,24980837,0,1500,1500,1000,1500,0,0,0,0,0,0,0,0,0,0,0,0,,,,,,,,
1634177401.88160801,25220,0.0004126782005187124,0.00016260960546787828,-0.12231733649969101,0.0001232467038789764,0.00016123749082908034,0.0001526756677776575,,,,,,,,,,,,,,,,,,,,,,,,,,
1634177401.88496804,,,,,,,,25220741,0,1500,1500,1000,1500,0,0,0,0,0,0,0,0,0,0,0,0,,,,,,,,
1634177402.13928390,25480,0.00042187373037450016,0.00017795219901017845,-0.12232164293527603,0.00016652930935379118,0.00017392542213201523,0.00016879219037946314,,,,,,,,,,,,,,,,,,,,,,,,,,
1634177402.14240789,,,,,,,,25480637,0,1500,1500,1000,1500,0,0,0,0,0,0,0,0,0,0,0,0,,,,,,,,
1634177402.37944794,25720,0.00043517310405150056,0.00019143661484122276,-0.12232818454504013,0.00016719971608836204,0.00017958413809537888,0.00020495580974966288,,,,,,,,,,,,,,,,,,,,,,,,,,
1634177402.38250399,,,,,,,,25720541,0,1500,1500,1000,1500,0,0,0,0,0,0,0,0,0,0,0,0,,,,,,,,
1634177402.63954782,25980,0.0004528164572548121,0.00020413864695001394,-0.12233208864927292,0.00024851420312188566,0.0001387129887007177,0.00014638574793934822,,,,,,,,,,,,,,,,,,,,,,,,,,
1634177402.64245582,,,,,,,,25980437,0,1500,1500,1000,1500,0,0,0,0,0,0,0,0,0,0,0,0,,,,,,,,
1634177402.88106394,26220,0.00046631001168861985,0.00021865889721084386,-0.12233848124742508,0.00017796098836697638,0.0001579862437210977,0.00017316133016720414,,,,,,,,,,,,,,,,,,,,,,,,,,
1634177402.88400388,,,,,,,,26220341,0,1500,1500,1000,1500,0,0,0,0,0,0,0,0,0,0,0,0,,,,,,,,
1634177403.14057183,26480,0.0004796347056981176,0.00023262074682861567,-0.1223529800772667,0.0001725363836158067,8.824441465549171e-05,0.0002430678141536191,,,,,,,,,,,,,,,,,,,,,,,,,,
1634177403.14337182,,,,,,,,26480237,0,1500,1500,1000,1500,0,0,0,0,0,0,0,0,0,0,0,0,,,,,,,,
1634177403.38360786,26720,0.0004913525190204382,0.0002473802014719695,-0.12236136943101883,0.00015819945838302374,0.00013971648877486587,0.00019253705977462232,,,,,,,,,,,,,,,,,,,,,,,,,,
1634177403.38623595,,,,,,,,26720974,0,1500,1500,1000,1500,0,0,0,0,0,0,0,0,0,0,0,0,,,,,,,,
1634177403.64309597,26980,0.0005100788548588753,0.0002552333753556013,-0.12237124890089035,0.00017452743486501276,0.00010718571138568223,0.00014892523176968098,,,,,,,,,,,,,,,,,,,,,,,,,,
1634177403.64601994,,,,,,,,26980870,0,1500,1500,1000,1500,0,0,0,0,0,0,0,0,0,0,0,0,,,,,,,,
1634177403.87988400,27220,0.0005212270189076662,0.00027044385205954313,-0.12238070368766785,0.000249785662163049,0.0001680822460912168,0.00018940831068903208,,,,,,,,,,,,,,,,,,,,,,,,,,
1634177403.88283587,,,,,,,,27220774,0,1500,1500,1000,1500,0,0,0,0,0,0,0,0,0,0,0,0,,,,,,,,
1634177404.13821197,27480,0.0005387024721130729,0.00028533217846415937,-0.12239114940166473,0.00021428754553198814,0.0001307339989580214,0.0001602778647793457,,,,,,,,,,,,,,,,,,,,,,,,,,
1634177404.14110398,,,,,,,,27480670,0,1500,1500,1000,1500,0,0,0,0,0,0,0,0,0,0,0,0,,,,,,,,
1634177404.37817597,27720,0.000549261225387454,0.000297416903777048,-0.12241052836179733,0.0001533860486233607,0.00011362711666151881,0.00013955860049463809,,,,,,,,,,,,,,,,,,,,,,,,,,
1634177404.38119602,,,,,,,,27720574,0,1500,1500,1000,1500,0,0,0,0,0,0,0,0,0,0,0,0,,,,,,,,
1634177404.64095998,27980,0.0005627212813124061,0.0003136296581942588,-0.12242545932531357,0.00014013003965374082,0.00014114408986642957,0.00018859942792914808,,,,,,,,,,,,,,,,,,,,,,,,,,
1634177404.64380789,,,,,,,,27980470,0,1500,1500,1000,1500,0,0,0,0,0,0,0,0,0,0,0,0,,,,,,,,
1634177404.87880397,28220,0.0005756453610956669,0.00032484979601576924,-0.1224386990070343,0.0001611251209396869,6.715537165291607e-05,0.00014565422316081822,,,,,,,,,,,,,,,,,,,,,,,,,,
1634177404.88162398,,,,,,,,28220374,0,1500,1500,1000,1500,0,0,0,0,0,0,0,0,0,0,0,0,,,,,,,,
1634177405.14319587,28480,0.0005841738311573863,0.00034092809073626995,-0.12245343625545502,0.00016151047020684928,0.00015355634968727827,0.00013539829524233937,,,,,,,,,,,,,,,,,,,,,,,,,,
1634177405.14637995,,,,,,,,28480270,0,1500,1500,1000,1500,0,0,0,0,0,0,0,0,0,0,0,0,,,,,,,,
1634177405.37871194,28720,0.000595986086409539,0.00034882553154602647,-0.1224709153175354,0.0002589437644928694,0.0001260049466509372,0.0001316291163675487,,,,,,,,,,,,,,,,,,,,,,,,,,
1634177405.38173985,,,,,,,,28720174,0,1500,1500,1000,1500,0,0,0,0,0,0,0,0,0,0,0,0,,,,,,,,
1634177405.63974404,28980,0.0006101909093558788,0.00035981833934783936,-0.12247896939516068,0.00015816495579201728,0.00012054768740199506,0.00019526598043739796,,,,,,,,,,,,,,,,,,,,,,,,,,
1634177405.66103196,,,,,,,,28980903,0,1500,1500,1000,1500,0,0,0,0,0,0,0,0,0,0,0,0,,,,,,,,
1634177405.87971592,29220,0.0006210628198459744,0.0003798050747718662,-0.12249359488487244,0.00016486219828948379,0.00020449902513064444,0.0001579386880621314,,,,,,,,,,,,,,,,,,,,,,,,,,
1634177405.88364387,,,,,,,,29220807,0,1500,1500,1000,1500,0,0,0,0,0,0,0,0,0,0,0,0,,,,,,,,
1634177406.13937998,29480,0.0006392758805304766,0.0003858255804516375,-0.12250902503728867,0.00016373343532904983,9.465846233069897e-05,9.627992403693497e-05,,,,,,,,,,,,,,,,,,,,,,,,,,
1634177406.14296389,,,,,,,,29480703,0,1500,1500,1000,1500,0,0,0,0,0,0,0,0,0,0,0,0,,,,,,,,
1634177406.38351202,29720,0.0006533665582537651,0.00039201174513436854,-0.12252670526504517,0.0001921566727105528,0.00016678040265105665,0.00019572771270759404,,,,,,,,,,,,,,,,,,,,,,,,,,
1634177406.38725591,,,,,,,,29720607,0,1500,1500,1000,1500,0,0,0,0,0,0,0,0,0,0,0,0,,,,,,,,
1634177406.64307594,29980,0.0006622832734137774,0.0003986735246144235,-0.1225413903594017,0.0002606393536552787,0.00010414049029350281,0.00013013018178753555,,,,,,,,,,,,,,,,,,,,,,,,,,
1634177406.64615583,,,,,,,,29980503,0,1500,1500,1000,1500,0,0,0,0,0,0,0,0,0,0,0,0,,,,,,,,
1634177406.88166404,30220,0.0006660642684437335,0.00040793532389216125,-0.12255585938692093,0.0001991352328332141,0.0001851562992669642,0.00012981242616660893,,,,,,,,,,,,,,,,,,,,,,,,,,
1634177406.88459992,,,,,,,,30220407,0,1500,1500,1000,1500,0,0,0,0,0,0,0,0,0,0,0,0,,,,,,,,
1634177407.14233589,30480,0.0006782985874451697,0.00041233390220440924,-0.1225728690624237,0.00021782788098789752,0.0001790816313587129,0.00020897059584967792,,,,,,,,,,,,,,,,,,,,,,,,,,
1634177407.14518404,,,,,,,,30480303,0,1500,1500,1000,1500,0,0,0,0,0,0,0,0,0,0,0,0,,,,,,,,
1634177407.37944794,30720,0.0006884376634843647,0.0004223899741191417,-0.12259218096733093,0.00020906452846247703,0.00014977180399000645,8.401722880080342e-05,,,,,,,,,,,,,,,,,,,,,,,,,,
1634177407.38350797,,,,,,,,30720207,0,1500,1500,1000,1500,0,0,0,0,0,0,0,0,0,0,0,0,,,,,,,,
1634177407.63996387,30980,0.0007023505750112236,0.0004353702533990145,-0.12261508405208588,0.00024630618281662464,7.349025690928102e-05,0.00014621278387494385,,,,,,,,,,,,,,,,,,,,,,,,,,
1634177407.64309597,,,,,,,,30980936,0,1500,1500,1000,1500,0,0,0,0,0,0,0,0,0,0,0,0,,,,,,,,
1634177407.88267994,31220,0.0007173405028879642,0.0004426256928127259,-0.12263091653585434,0.00026290660025551915,0.00021347604342736304,0.00018970482051372528,,,,,,,,,,,,,,,,,,,,,,,,,,
1634177407.88556385,,,,,,,,31220840,0,1500,1500,1000,1500,0,0,0,0,0,0,0,0,0,0,0,0,,,,,,,,
1634177408.14122796,31480,0.0007292032823897898,0.00044871639693155885,-0.12264437973499298,0.00021136394934728742,0.0001238016993738711,0.0001773024268914014,,,,,,,,,,,,,,,,,,,,,,,,,,
1634177408.14426804,,,,,,,,31480736,0,1500,1500,1000,1500,0,0,0,0,0,0,0,0,0,0,0,0,,,,,,,,
1634177408.37958002,31720,0.0007390068494714797,0.0004591546021401882,-0.12265989184379578,0.00021560362074524164,0.00011393427848815918,0.0001347553334198892,,,,,,,,,,,,,,,,,,,,,,,,,,
1634177408.38595581,,,,,,,,31720640,0,1500,1500,1000,1500,0,0,0,0,0,0,0,0,0,0,0,0,,,,,,,,
1634177408.63857198,31980,0.0007477233884856105,0.00046870537335053086,-0.12267296016216278,0.00024182116612792015,9.880270226858556e-05,0.00016663235146552324,,,,,,,,,,,,,,,,,,,,,,,,,,
1634177408.64190388,,,,,,,,31980536,0,1500,1500,1000,1500,0,0,0,0,0,0,0,0,0,0,0,0,,,,,,,,
1634177408.88363600,32220,0.000755578454118222,0.00047421938506886363,-0.12269201129674911,0.0002506469318177551,0.00018047299818135798,9.477813728153706e-05,,,,,,,,,,,,,,,,,,,,,,,,,,
1634177408.88998389,,,,,,,,32220440,0,1500,1500,1000,1500,0,0,0,0,0,0,0,0,0,0,0,0,,,,,,,,
1634177409.14323187,32480,0.0007627167506143451,0.00048232654808089137,-0.12270916253328323,0.0003002306038979441,0.00013475233572535217,0.00022425616043619812,,,,,,,,,,,,,,,,,,,,,,,,,,
1634177409.14628386,,,,,,,,32480336,0,1500,1500,1000,1500,0,0,0,0,0,0,0,0,0,0,0,0,,,,,,,,
1634177409.38031983,32720,0.0007712571532465518,0.0004963033134117723,-0.12271877378225327,0.00019656200311146677,0.00022209915914572775,0.0001556524366606027,,,,,,,,,,,,,,,,,,,,,,,,,,
1634177409.38301587,,,,,,,,32720240,0,1500,1500,1000,1500,0,0,0,0,0,0,0,0,0,0,0,0,,,,,,,,
1634177409.64067602,32980,0.0007827783701941371,0.000505334697663784,-0.12273196130990982,0.00025517045287415385,0.00017025100532919168,0.0001791959221009165,,,,,,,,,,,,,,,,,,,,,,,,,,
1634177409.64379597,,,,,,,,32980969,0,1500,1500,1000,1500,0,0,0,0,0,0,0,0,0,0,0,0,,,,,,,,
1634177409.88049984,33220,0.0007948307320475578,0.0005160854780115187,-0.12274407595396042,0.00016714807134121656,0.00019553612219169736,0.00020642607705667615,,,,,,,,,,,,,,,,,,,,,,,,,,
1634177409.88529181,,,,,,,,33220873,0,1500,1500,1000,1500,0,0,0,0,0,0,0,0,0,0,0,0,,,,,,,,
1634177410.14040399,33480,0.0008037711959332228,0.0005298446048982441,-0.12275925278663635,0.00011848178110085428,0.00023919722298160195,0.00013678142568096519,,,,,,,,,,,,,,,,,,,,,,,,,,
1634177410.14378786,,,,,,,,33480769,0,1500,1500,1000,1500,0,0,0,0,0,0,0,0,0,0,0,0,,,,,,,,
1634177410.38207984,33720,0.0008100450504571199,0.0005370963481254876,-0.12276697158813477,0.0002861172833945602,0.00024258633493445814,0.00012306001735851169,,,,,,,,,,,,,,,,,,,,,,,,,,
1634177410.38513184,,,,,,,,33720673,0,1500,1500,1000,1500,0,0,0,0,0,0,0,0,0,0,0,0,,,,,,,,
1634177410.64130402,33980,0.0008166547631844878,0.0005465135909616947,-0.12277846783399582,0.00022093584993854165,0.0002145283215213567,0.0001666773168835789,,,,,,,,,,,,,,,,,,,,,,,,,,
1634177410.64434791,,,,,,,,33980569,0,1500,1500,1000,1500,0,0,0,0,0,0,0,0,0,0,0,0,,,,,,,,
1634177410.88038397,34220,0.000824516755528748,0.0005575988325290382,-0.12279153615236282,0.0002350317663513124,0.00021044185268692672,0.00018941238522529602,,,,,,,,,,,,,,,,,,,,,,,,,,
1634177410.88677192,,,,,,,,34220473,0,1500,1500,1000,1500,0,0,0,0,0,0,0,0,0,0,0,0,,,,,,,,
1634177411.13857985,34480,0.0008342195651493967,0.0005703791393898427,-0.12280480563640594,0.0002517401590012014,0.00021088097128085792,0.0001677033433225006,,,,,,,,,,,,,,,,,,,,,,,,,,
1634177411.14206386,,,,,,,,34480369,0,1500,1500,1000,1500,0,0,0,0,0,0,0,0,0,0,0,0,,,,,,,,
1634177411.38028002,34720,0.0008334185113199055,0.0005817713681608438,-0.12281619757413864,0.00016173446783795953,0.00020657875575125217,0.000145259517012164,,,,,,,,,,,,,,,,,,,,,,,,,,
1634177411.38321996,,,,,,,,34720273,0,1500,1500,1000,1500,0,0,0,0,0,0,0,0,0,0,0,0,,,,,,,,
1634177411.64080787,34980,0.0008367386762984097,0.0005860271048732102,-0.12283090502023697,0.00013827666407451034,0.00021890061907470226,0.0001851714332588017,,,,,,,,,,,,,,,,,,,,,,,,,,
1634177411.64408803,,,,,,,,34980169,0,1500,1500,1000,1500,0,0,0,0,0,0,0,0,0,0,0,0,,,,,,,,
1634177411.88159990,35220,0.0008482058183290064,0.0005967316683381796,-0.12284291535615921,0.00028859361191280186,0.00016262478311546147,0.00018526596250012517,,,,,,,,,,,,,,,,,,,,,,,,,,
1634177411.88470793,,,,,,,,35220906,0,1500,1500,1000,1500,0,0,0,0,0,0,0,0,0,0,0,0,,,,,,,,
1634177412.14330387,35480,0.0008554824162274599,0.0005963475559838116,-0.12285441160202026,0.00021136357099749148,0.00015331775648519397,0.00017209610086865723,,,,,,,,,,,,,,,,,,,,,,,,,,
1634177412.14649987,,,,,,,,35480802,0,1500,1500,1000,1500,0,0,0,0,0,0,0,0,0,0,0,0,,,,,,,,
1634177412.38387990,35720,0.0008590244688093662,0.0005982526345178485,-0.12286163121461868,0.00024425232550129294,0.00017281522741541266,0.00013659789692610502,,,,,,,,,,,,,,,,,,,,,,,,,,
1634177412.39751196,,,,,,,,35720706,0,1500,1500,1000,1500,0,0,0,0,0,0,0,0,0,0,0,0,,,,,,,,
1634177412.63902402,35980,0.0008630529628135264,0.0006116856238804758,-0.12287429720163345,0.0002392579335719347,0.0001798126904759556,9.73501882981509e-05,,,,,,,,,,,,,,,,,,,,,,,,,,
1634177412.64225984,,,,,,,,35980602,0,1500,1500,1000,1500,0,0,0,0,0,0,0,0,0,0,0,0,,,,,,,,
1634177412.88225985,36220,0.0008744799997657537,0.0006201064097695053,-0.12288788706064224,0.00026745034847408533,0.00017225209739990532,0.00018982603796757758,,,,,,,,,,,,,,,,,,,,,,,,,,
1634177412.88610792,,,,,,,,36220506,0,1500,1500,1000,1500,0,0,0,0,0,0,0,0,0,0,0,0,,,,,,,,
1634177413.14130783,36480,0.0008846107521094382,0.0006296976935118437,-0.12289685755968094,0.0002692742273211479,0.00020129879703745246,0.0002741656207945198,,,,,,,,,,,,,,,,,,,,,,,,,,
1634177413.14443183,,,,,,,,36480402,0,1500,1500,1000,1500,0,0,0,0,0,0,0,0,0,0,0,0,,,,,,,,
1634177413.38236785,36720,0.0008907365263439715,0.0006352426134981215,-0.12290235608816147,0.0002567580377217382,0.00020184696768410504,0.00021666751126758754,,,,,,,,,,,,,,,,,,,,,,,,,,
1634177413.38546395,,,,,,,,36720306,0,1500,1500,1000,1500,0,0,0,0,0,0,0,0,0,0,0,0,,,,,,,,
1634177413.63893986,36980,0.0008987190085463226,0.0006440099095925689,-0.1229206919670105,0.000221567926928401,0.00024065843899734318,0.00010798725998029113,,,,,,,,,,,,,,,,,,,,,,,,,,
1634177413.64746785,,,,,,,,36980202,0,1500,1500,1000,1500,0,0,0,0,0,0,0,0,0,0,0,0,,,,,,,,
1634177413.88203192,37220,0.0009030458168126643,0.000651549780741334,-0.12292789667844772,0.00021295563783496618,0.0001806418295018375,0.00018375940271653235,,,,,,,,,,,,,,,,,,,,,,,,,,
1634177413.88617182,,,,,,,,37220939,0,1500,1500,1000,1500,0,0,0,0,0,0,0,0,0,0,0,0,,,,,,,,
1634177414.14429998,37480,0.0009080602903850377,0.0006532588740810752,-0.12293744087219238,0.0003235693438909948,0.0002784212410915643,0.00018447014736011624,,,,,,,,,,,,,,,,,,,,,,,,,,
1634177414.14761996,,,,,,,,37480835,0,1500,1500,1000,1500,0,0,0,0,0,0,0,0,0,0,0,0,,,,,,,,
1634177414.38352394,37720,0.0009158154716715217,0.000660809688270092,-0.12294352799654007,0.00018103828188031912,0.00022307675681076944,0.0001781514729373157,,,,,,,,,,,,,,,,,,,,,,,,,,
1634177414.38843203,,,,,,,,37720739,0,1500,1500,1000,1500,0,0,0,0,0,0,0,0,0,0,0,0,,,,,,,,
1634177414.63995194,37980,0.0009190687560476363,0.0006662323139607906,-0.12294633686542511,0.00027123084873892367,0.00013986157136969268,0.0001649122277740389,,,,,,,,,,,,,,,,,,,,,,,,,,
1634177414.64520001,,,,,,,,37980635,0,1500,1500,1000,1500,0,0,0,0,0,0,0,0,0,0,0,0,,,,,,,,
1634177414.88341594,38220,0.0009288816363550723,0.0006770540494471788,-0.1229475885629654,0.00022959487978368998,0.000199188943952322,0.0001423842622898519,,,,,,,,,,,,,,,,,,,,,,,,,,
1634177414.88901591,,,,,,,,38220539,0,1500,1500,1000,1500,0,0,0,0,0,0,0,0,0,0,0,0,,,,,,,,
1634177415.14222383,38480,0.0009348135208711028,0.000676928844768554,-0.12295375764369965,0.0002017150109168142,0.00014215768896974623,0.000151284591993317,,,,,,,,,,,,,,,,,,,,,,,,,,
1634177415.14547992,,,,,,,,38480435,0,1500,1500,1000,1500,0,0,0,0,0,0,0,0,0,0,0,0,,,,,,,,
1634177415.38492393,38720,0.0009383433498442173,0.0006807629251852632,-0.12295391410589218,0.0003041412273887545,0.00014959846157580614,0.0003159027546644211,,,,,,,,,,,,,,,,,,,,,,,,,,
1634177415.38772798,,,,,,,,38720339,0,1500,1500,1000,1500,0,0,0,0,0,0,0,0,0,0,0,0,,,,,,,,
1634177415.64227581,38980,0.0009520445601083338,0.0006907503120601177,-0.12295742332935333,0.0002840339730028063,0.00025011226534843445,0.0002196097921114415,,,,,,,,,,,,,,,,,,,,,,,,,,
1634177415.64511585,,,,,,,,38980235,0,1500,1500,1000,1500,0,0,0,0,0,0,0,0,0,0,0,0,,,,,,,,
1634177415.88225603,39220,0.0009564525098539889,0.0006957662990316749,-0.12296301871538162,0.00020511657930910587,0.00025189845473505557,0.0001813345297705382,,,,,,,,,,,,,,,,,,,,,,,,,,
1634177415.88527203,,,,,,,,39220972,0,1500,1500,1000,1500,0,0,0,0,0,0,0,0,0,0,0,0,,,,,,,,
1634177416.14296794,39480,0.0009623499936424196,0.0007022156496532261,-0.12296296656131744,0.0002600743027869612,0.00022033031564205885,0.0002443488338030875,,,,,,,,,,,,,,,,,,,,,,,,,,
1634177416.14624000,,,,,,,,39480868,0,1500,1500,1000,1500,0,0,0,0,0,0,0,0,0,0,0,0,,,,,,,,
1634177416.38437581,39720,0.0009679868817329407,0.0007114133331924677,-0.12297382205724716,0.00026078298105858266,0.00024203292559832335,0.00016342682647518814,,,,,,,,,,,,,,,,,,,,,,,,,,
1634177416.38755202,,,,,,,,39720772,0,1500,1500,1000,1500,0,0,0,0,0,0,0,0,0,0,0,0,,,,,,,,
1634177416.64274001,39980,0.0009753090562298894,0.0007164982380345464,-0.12297812849283218,0.00019955605966970325,0.0002054065407719463,0.00021241357899270952,,,,,,,,,,,,,,,,,,,,,,,,,,
1634177416.64915204,,,,,,,,39980668,0,1500,1500,1000,1500,0,0,0,0,0,0,0,0,0,0,0,0,,,,,,,,
1634177416.87939596,40220,0.00098134926520288,0.0007238310063257813,-0.1229751855134964,0.0002749412669800222,0.0002567764313425869,0.00023813825100660324,,,,,,,,,,,,,,,,,,,,,,,,,,
1634177416.88237190,,,,,,,,40220572,0,1500,1500,1000,1500,0,0,0,0,0,0,0,0,0,0,0,0,,,,,,,,
1634177417.14018798,40480,0.0009913548128679395,0.0007357134018093348,-0.12297948449850082,0.00030332760070450604,0.00025678041856735945,0.00022538009216077626,,,,,,,,,,,,,,,,,,,,,,,,,,
1634177417.14312792,,,,,,,,40480468,0,1500,1500,1000,1500,0,0,0,0,0,0,0,0,0,0,0,0,,,,,,,,
1634177417.38261199,40720,0.0009973006090149283,0.0007440955378115177,-0.12297984212636948,0.0002257780870422721,0.00023886674898676574,0.0001497755292803049,,,,,,,,,,,,,,,,,,,,,,,,,,
1634177417.38563585,,,,,,,,40720372,0,1500,1500,1000,1500,0,0,0,0,0,0,0,0,0,0,0,0,,,,,,,,
1634177417.64118385,40980,0.001003894372843206,0.0007554168114438653,-0.12298692017793655,0.00022142502712085843,0.00022368281497620046,0.00024632763233967125,,,,,,,,,,,,,,,,,,,,,,,,,,
1634177417.64420390,,,,,,,,40980268,0,1500,1500,1000,1500,0,0,0,0,0,0,0,0,0,0,0,0,,,,,,,,
1634177417.88129187,41220,0.0010080081410706043,0.0007650150801055133,-0.12299352139234543,0.0002308569964952767,0.00012833537766709924,0.0001646407472435385,,,,,,,,,,,,,,,,,,,,,,,,,,
1634177417.88439202,,,,,,,,41220172,0,1500,1500,1000,1500,0,0,0,0,0,0,0,0,0,0,0,0,,,,,,,,
1634177418.14403200,41480,0.001017294591292739,0.000770710757933557,-0.12299487739801407,0.0002443659759592265,0.00017121803830377758,0.00023807119578123093,,,,,,,,,,,,,,,,,,,,,,,,,,
1634177418.14722395,,,,,,,,41480901,0,1500,1500,1000,1500,0,0,0,0,0,0,0,0,0,0,0,0,,,,,,,,
1634177418.37973595,41720,0.0010243502911180258,0.0007766459602862597,-0.12299517542123795,0.00030672247521579266,0.0002580241416580975,0.00025401375023648143,,,,,,,,,,,,,,,,,,,,,,,,,,
1634177418.38319993,,,,,,,,41720805,0,1500,1500,1000,1500,0,0,0,0,0,0,0,0,0,0,0,0,,,,,,,,
1634177418.64396381,41980,0.001025116303935647,0.0007822824409231544,-0.12299391627311707,0.00028654903871938586,0.00019438954768702388,0.00023308568052016199,,,,,,,,,,,,,,,,,,,,,,,,,,
1634177418.64705586,,,,,,,,41980701,0,1500,1500,1000,1500,0,0,0,0,0,0,0,0,0,0,0,0,,,,,,,,
1634177418.88132381,42220,0.001038881135173142,0.0007923877565190196,-0.12299700826406479,0.0002636424032971263,0.0002535854873713106,0.00013634690549224615,,,,,,,,,,,,,,,,,,,,,,,,,,
1634177418.88446784,,,,,,,,42220605,0,1500,1500,1000,1500,0,0,0,0,0,0,0,0,0,0,0,0,,,,,,,,
1634177419.14117599,42480,0.001044058008119464,0.0007974535692483187,-0.12300155311822891,0.0002844646223820746,0.00012701109517365694,0.00017108721658587456,,,,,,,,,,,,,,,,,,,,,,,,,,
1634177419.14609194,,,,,,,,42480501,0,1500,1500,1000,1500,0,0,0,0,0,0,0,0,0,0,0,0,,,,,,,,
1634177419.38024402,42720,0.0010474686278030276,0.0008103608270175755,-0.12299750745296478,0.0002193081600125879,0.0002828185970429331,0.0002328700793441385,,,,,,,,,,,,,,,,,,,,,,,,,,
1634177419.38346004,,,,,,,,42720405,0,1500,1500,1000,1500,0,0,0,0,0,0,0,0,0,0,0,0,,,,,,,,
1634177419.64111590,42980,0.00104927783831954,0.00081872777082026,-0.12300364673137665,0.00031278759706765413,0.0002698829339351505,0.00018256413750350475,,,,,,,,,,,,,,,,,,,,,,,,,,
1634177419.64444804,,,,,,,,42980301,0,1500,1500,1000,1500,0,0,0,0,0,0,0,0,0,0,0,0,,,,,,,,
1634177419.88397598,43220,0.0010578491492196918,0.0008250083774328232,-0.12300891429185867,0.0002412325411569327,0.00017608917551115155,0.00017627025954425335,,,,,,,,,,,,,,,,,,,,,,,,,,
1634177419.88865185,,,,,,,,43220205,0,1500,1500,1000,1500,0,0,0,0,0,0,0,0,0,0,0,0,,,,,,,,
1634177420.14043999,43480,0.001064329408109188,0.0008254775311797857,-0.12300539761781693,0.0003609446284826845,0.00019091219292022288,0.00024712475715205073,,,,,,,,,,,,,,,,,,,,,,,,,,
1634177420.14505196,,,,,,,,43480934,0,1500,1500,1000,1500,0,0,0,0,0,0,0,0,0,0,0,0,,,,,,,,
1634177420.38243985,43720,0.001065534888766706,0.0008327861432917416,-0.1230020523071289,0.0002981475554406643,0.0002646532957442105,0.00022391736274585128,,,,,,,,,,,,,,,,,,,,,,,,,,
1634177420.38551188,,,,,,,,43720838,0,1500,1500,1000,1500,0,0,0,0,0,0,0,0,0,0,0,0,,,,,,,,
1634177420.64073586,43980,0.0010726114269345999,0.0008399547077715397,-0.12299931049346924,0.00029966136207804084,0.00026089878519997,0.00027227072860114276,,,,,,,,,,,,,,,,,,,,,,,,,,
1634177420.64367199,,,,,,,,43980734,0,1500,1500,1000,1500,0,0,0,0,0,0,0,0,0,0,0,0,,,,,,,,
1634177420.88247991,44220,0.001079023233614862,0.0008447087020613253,-0.12300031632184982,0.00017231132369488478,0.0002425451239105314,0.00018552725668996572,,,,,,,,,,,,,,,,,,,,,,,,,,
1634177420.88686800,,,,,,,,44220638,0,1500,1500,1000,1500,0,0,0,0,0,0,0,0,0,0,0,0,,,,,,,,
1634177421.14574003,44480,0.0010867551900446415,0.0008526777382940054,-0.12299682199954987,0.0002721759956330061,0.00024812971241772175,0.00021250697318464518,,,,,,,,,,,,,,,,,,,,,,,,,,
1634177421.15072799,,,,,,,,44480534,0,1500,1500,1000,1500,0,0,0,0,0,0,0,0,0,0,0,0,,,,,,,,
1634177421.38468003,44720,0.0010928444098681211,0.0008543758885934949,-0.12299447506666183,0.00027816524379886687,0.00017719966126605868,0.00014705132343806326,,,,,,,,,,,,,,,,,,,,,,,,,,
1634177421.38741589,,,,,,,,44720438,0,1500,1500,1000,1500,0,0,0,0,0,0,0,0,0,0,0,0,,,,,,,,
1634177421.64140391,44980,0.0011059092357754707,0.0008578238193877041,-0.12299197912216187,0.0002597884740680456,0.00024403660790994763,0.00023682479513809085,,,,,,,,,,,,,,,,,,,,,,,,,,
1634177421.64439583,,,,,,,,44980334,0,1500,1500,1000,1500,0,0,0,0,0,0,0,0,0,0,0,0,,,,,,,,
1634177421.88291192,45220,0.0011088743340224028,0.0008622863097116351,-0.12299218028783798,0.00025716362870298326,0.00022046722006052732,0.00023637054255232215,,,,,,,,,,,,,,,,,,,,,,,,,,
1634177421.88569999,,,,,,,,45220238,0,1500,1500,1000,1500,0,0,0,0,0,0,0,0,0,0,0,0,,,,,,,,
1634177422.14274383,45480,0.001108374446630478,0.0008646185742691159,-0.12298554927110672,0.00019302181317470968,0.00022555061150342226,0.00024074490647763014,,,,,,,,,,,,,,,,,,,,,,,,,,
1634177422.14572382,,,,,,,,45480967,0,1500,1500,1000,1500,0,0,0,0,0,0,0,0,0,0,0,0,,,,,,,,
1634177422.38102388,45720,0.001115439343266189,0.0008724317885935307,-0.12298396229743958,0.00032646654290147126,0.0002193845866713673,0.00028361118165776134,,,,,,,,,,,,,,,,,,,,,,,,,,
1634177422.38429189,,,,,,,,45720871,0,1500,1500,1000,1500,0,0,0,0,0,0,0,0,0,0,0,0,,,,,,,,
1634177422.64172792,45980,0.0011220142478123307,0.000870424322783947,-0.12298411875963211,0.0003284144913777709,0.00018419467960484326,0.00022730376804247499,,,,,,,,,,,,,,,,,,,,,,,,,,
1634177422.64469194,,,,,,,,45980767,0,1500,1500,1000,1500,0,0,0,0,0,0,0,0,0,0,0,0,,,,,,,,
1634177422.88339996,46220,0.0011333057191222906,0.0008746536332182586,-0.12298346310853958,0.0003282243269495666,0.00015797247760929167,0.00018562417244538665,,,,,,,,,,,,,,,,,,,,,,,,,,
1634177422.88617182,,,,,,,,46220671,0,1500,1500,1000,1500,0,0,0,0,0,0,0,0,0,0,0,0,,,,,,,,
1634177423.14567590,46480,0.0011354110902175307,0.0008756713941693306,-0.12297673523426056,0.00027364413836039603,0.00022930937120690942,0.00030264747329056263,,,,,,,,,,,,,,,,,,,,,,,,,,
1634177423.14965582,,,,,,,,46480567,0,1500,1500,1000,1500,0,0,0,0,0,0,0,0,0,0,0,0,,,,,,,,
1634177423.38505197,46720,0.0011379413772374392,0.0008790572173893452,-0.12297581136226654,0.00026025145780295134,0.00025128512061201036,0.00014827187987975776,,,,,,,,,,,,,,,,,,,,,,,,,,
1634177423.39357996,,,,,,,,46720471,0,1500,1500,1000,1500,0,0,0,0,0,0,0,0,0,0,0,0,,,,,,,,
1634177423.64116788,46980,0.001139571308158338,0.0008851750171743333,-0.1229700893163681,0.00019488902762532234,0.00024366937577724457,0.00019212090410292149,,,,,,,,,,,,,,,,,,,,,,,,,,
1634177423.64479184,,,,,,,,46980367,0,1500,1500,1000,1500,0,0,0,0,0,0,0,0,0,0,0,0,,,,,,,,
1634177423.88321185,47220,0.0011407401179894805,0.0008918107487261295,-0.12296655774116516,0.00021297013154253364,0.00026542003615759313,0.0002858318912331015,,,,,,,,,,,,,,,,,,,,,,,,,,
1634177423.88690400,,,,,,,,47220271,0,1500,1500,1000,1500,0,0,0,0,0,0,0,0,0,0,0,0,,,,,,,,
1634177424.14552784,47480,0.0011481101391837,0.0008973042131401598,-0.12296441197395325,0.0002683196507859975,0.0002301860658917576,0.00028059823671355844,,,,,,,,,,,,,,,,,,,,,,,,,,
1634177424.14877200,,,,,,,,47480167,0,1500,1500,1000,1500,0,0,0,0,0,0,0,0,0,0,0,0,,,,,,,,
1634177424.38130784,47720,0.0011507029412314296,0.0009114845306612551,-0.1229574903845787,0.00021734830806963146,0.0002941265411209315,0.00023307037190534174,,,,,,,,,,,,,,,,,,,,,,,,,,
1634177424.38544798,,,,,,,,47720904,0,1500,1500,1000,1500,0,0,0,0,0,0,0,0,0,0,0,0,,,,,,,,
1634177424.64123988,47980,0.0011585747124627233,0.0009107280639000237,-0.1229570209980011,0.00034389275242574513,0.00021801228285767138,0.00024660659255459905,,,,,,,,,,,,,,,,,,,,,,,,,,
1634177424.64427996,,,,,,,,47980800,0,1500,1500,1000,1500,0,0,0,0,0,0,0,0,0,0,0,0,,,,,,,,
1634177424.88522387,48220,0.0011645732447504997,0.0009174313163384795,-0.1229572519659996,0.00027801081887446344,0.00020736054284498096,0.00017421055235899985,,,,,,,,,,,,,,,,,,,,,,,,,,
1634177424.88821602,,,,,,,,48220704,0,1500,1500,1000,1500,0,0,0,0,0,0,0,0,0,0,0,0,,,,,,,,
1634177425.14474392,48480,0.001164543442428112,0.0009194471058435738,-0.12295076996088028,0.0002663644845597446,0.00016547544510103762,0.00023351455456577241,,,,,,,,,,,,,,,,,,,,,,,,,,
1634177425.14787197,,,,,,,,48480600,0,1500,1500,1000,1500,0,0,0,0,0,0,0,0,0,0,0,0,,,,,,,,
1634177425.38512802,48720,0.0011674606939777732,0.000923898711334914,-0.12293937057256699,0.0002537216350901872,0.0001947084383573383,0.0002956903772428632,,,,,,,,,,,,,,,,,,,,,,,,,,
1634177425.38822389,,,,,,,,48720504,0,1500,1500,1000,1500,0,0,0,0,0,0,0,0,0,0,0,0,,,,,,,,
1634177425.64564800,48980,0.0011764243245124817,0.0009319257806055248,-0.1229282021522522,0.00024856693926267326,0.00024139593006111681,0.00022164947586134076,,,,,,,,,,,,,,,,,,,,,,,,,,
1634177425.65865993,,,,,,,,48980400,0,1500,1500,1000,1500,0,0,0,0,0,0,0,0,0,0,0,0,,,,,,,,
1634177425.87997198,49220,0.001179871498607099,0.0009371096384711564,-0.12292375415563583,0.00026630156207829714,0.00022802487364970148,0.00020291056716814637,,,,,,,,,,,,,,,,,,,,,,,,,,
1634177425.88308382,,,,,,,,49220304,0,1500,1500,1000,1500,0,0,0,0,0,0,0,0,0,0,0,0,,,,,,,,
