timestamp,ATTITUDE.time_boot_ms,ATTITUDE.roll,ATTITUDE.pitch,ATTITUDE.yaw,ATTITUDE.rollspeed,ATTITUDE.pitchspeed,ATTITUDE.yawspeed,SERVO_OUTPUT_RAW.time_usec,SERVO_OUTPUT_RAW.port,SERVO_OUTPUT_RAW.servo1_raw,SERVO_OUTPUT_RAW.servo2_raw,SERVO_OUTPUT_RAW.servo3_raw,SERVO_OUTPUT_RAW.servo4_raw,SERVO_OUTPUT_RAW.servo5_raw,SERVO_OUTPUT_RAW.servo6_raw,SERVO_OUTPUT_RAW.servo7_raw,SERVO_OUTPUT_RAW.servo8_raw,SERVO_OUTPUT_RAW.servo9_raw,SERVO_OUTPUT_RAW.servo10_raw,SERVO_OUTPUT_RAW.servo11_raw,SERVO_OUTPUT_RAW.servo12_raw,SERVO_OUTPUT_RAW.servo13_raw,SERVO_OUTPUT_RAW.servo14_raw,SERVO_OUTPUT_RAW.servo15_raw,SERVO_OUTPUT_RAW.servo16_raw,NAV_CONTROLLER_OUTPUT.nav_roll,NAV_CONTROLLER_OUTPUT.nav_pitch,NAV_CONTROLLER_OUTPUT.nav_bearing,NAV_CONTROLLER_OUTPUT.target_bearing,NAV_CONTROLLER_OUTPUT.wp_dist,NAV_CONTROLLER_OUTPUT.alt_error,NAV_CONTROLLER_OUTPUT.aspd_error,NAV_CONTROLLER_OUTPUT.xtrack_error
1634346281.35576797,,,,,,,,200753,0,1500,1500,1000,1500,1000,1000,1000,1000,0,0,0,0,0,0,0,0,,,,,,,,
1634346281.36801195,,,,,,,,221578,0,1500,1500,1000,1500,1000,1000,1000,1000,0,0,0,0,0,0,0,0,,,,,,,,
1634346281.36829996,,,,,,,,242403,0,1500,1500,1000,1500,1000,1000,1000,1000,0,0,0,0,0,0,0,0,,,,,,,,
1634346281.36854386,,,,,,,,263228,0,1500,1500,1000,1500,1000,1000,1000,1000,0,0,0,0,0,0,0,0,,,,,,,,
1634346281.37765193,,,,,,,,284053,0,1500,1500,1000,1500,1000,1000,1000,1000,0,0,0,0,0,0,0,0,,,,,,,,
1634346281.37796783,,,,,,,,304878,0,1500,1500,1000,1500,1000,1000,1000,1000,0,0,0,0,0,0,0,0,,,,,,,,
1634346281.37821198,,,,,,,,325703,0,1500,1500,1000,1500,1000,1000,1000,1000,0,0,0,0,0,0,0,0,,,,,,,,
1634346281.37849998,,,,,,,,346528,0,1500,1500,1000,1500,1000,1000,1000,1000,0,0,0,0,0,0,0,0,,,,,,,,
1634346281.39037204,,,,,,,,367353,0,1500,1500,1000,1500,1000,1000,1000,1000,0,0,0,0,0,0,0,0,,,,,,,,
1634346281.39073181,,,,,,,,388178,0,1500,1500,1000,1500,1000,1000,1000,1000,0,0,0,0,0,0,0,0,,,,,,,,
1634346281.39423585,,,,,,,,409003,0,1500,1500,1000,1500,1000,1000,1000,1000,0,0,0,0,0,0,0,0,,,,,,,,
1634346281.39457202,,,,,,,,429828,0,1500,1500,1000,1500,1000,1000,1000,1000,0,0,0,0,0,0,0,0,,,,,,,,
1634346281.39481997,,,,,,,,450653,0,1500,1500,1000,1500,1000,1000,1000,1000,0,0,0,0,0,0,0,0,,,,,,,,
1634346281.39509583,,,,,,,,471478,0,1500,1500,1000,1500,1000,1000,1000,1000,0,0,0,0,0,0,0,0,,,,,,,,
1634346281.39855981,,,,,,,,492303,0,1500,1500,1000,1500,1000,1000,1000,1000,0,0,0,0,0,0,0,0,,,,,,,,
1634346281.39998794,,,,,,,,513128,0,1500,1500,1000,1500,1000,1000,1000,1000,0,0,0,0,0,0,0,0,,,,,,,,
1634346281.40024400,,,,,,,,533953,0,1500,1500,1000,1500,1000,1000,1000,1000,0,0,0,0,0,0,0,0,,,,,,,,
1634346281.40047598,,,,,,,,554778,0,1500,1500,1000,1500,1000,1000,1000,1000,0,0,0,0,0,0,0,0,,,,,,,,
1634346281.40072799,,,,,,,,575603,0,1500,1500,1000,1500,1000,1000,1000,1000,0,0,0,0,0,0,0,0,,,,,,,,
1634346281.40680003,,,,,,,,596428,0,1500,1500,1000,1500,1000,1000,1000,1000,0,0,0,0,0,0,0,0,,,,,,,,
1634346281.40712404,,,,,,,,617253,0,1500,1500,1000,1500,1000,1000,1000,1000,0,0,0,0,0,0,0,0,,,,,,,,
1634346281.40736389,,,,,,,,638078,0,1500,1500,1000,1500,1000,1000,1000,1000,0,0,0,0,0,0,0,0,,,,,,,,
1634346281.40759587,,,,,,,,658903,0,1500,1500,1000,1500,1000,1000,1000,1000,0,0,0,0,0,0,0,0,,,,,,,,
1634346281.40786004,,,,,,,,679728,0,1500,1500,1000,1500,1000,1000,1000,1000,0,0,0,0,0,0,0,0,,,,,,,,
1634346281.40972781,,,,,,,,700553,0,1500,1500,1000,1500,1000,1000,1000,1000,0,0,0,0,0,0,0,0,,,,,,,,
1634346281.40996790,,,,,,,,721378,0,1500,1500,1000,1500,1000,1000,1000,1000,0,0,0,0,0,0,0,0,,,,,,,,
1634346281.41020393,,,,,,,,742203,0,1500,1500,1000,1500,1000,1000,1000,1000,0,0,0,0,0,0,0,0,,,,,,,,
1634346281.41364002,,,,,,,,763028,0,1500,1500,1000,1500,1000,1000,1000,1000,0,0,0,0,0,0,0,0,,,,,,,,
1634346281.41389990,,,,,,,,783853,0,1500,1500,1000,1500,1000,1000,1000,1000,0,0,0,0,0,0,0,0,,,,,,,,
1634346281.42067599,,,,,,,,804678,0,1500,1500,1000,1500,1000,1000,1000,1000,0,0,0,0,0,0,0,0,,,,,,,,
1634346281.42104793,,,,,,,,825503,0,1500,1500,1000,1500,1000,1000,1000,1000,0,0,0,0,0,0,0,0,,,,,,,,
1634346281.42130399,,,,,,,,846328,0,1500,1500,1000,1500,1000,1000,1000,1000,0,0,0,0,0,0,0,0,,,,,,,,
1634346281.42840004,,,,,,,,867153,0,1500,1500,1000,1500,1000,1000,1000,1000,0,0,0,0,0,0,0,0,,,,,,,,
1634346281.42869186,,,,,,,,887978,0,1500,1500,1000,1500,1000,1000,1000,1000,0,0,0,0,0,0,0,0,,,,,,,,
1634346281.42893982,,,,,,,,908803,0,1500,1500,1000,1500,1000,1000,1000,1000,0,0,0,0,0,0,0,0,,,,,,,,
1634346281.42919993,,,,,,,,929628,0,1500,1500,1000,1500,1000,1000,1000,1000,0,0,0,0,0,0,0,0,,,,,,,,
1634346281.43470788,,,,,,,,950453,0,1500,1500,1000,1500,1000,1000,1000,1000,0,0,0,0,0,0,0,0,,,,,,,,
1634346281.43586802,,,,,,,,971278,0,1500,1500,1000,1500,1000,1000,1000,1000,0,0,0,0,0,0,0,0,,,,,,,,
1634346281.43830395,,,,,,,,992103,0,1500,1500,1000,1500,1000,1000,1000,1000,0,0,0,0,0,0,0,0,,,,,,,,
1634346281.43858790,,,,,,,,1012928,0,1500,1500,1000,1500,1000,1000,1000,1000,0,0,0,0,0,0,0,0,,,,,,,,
1634346281.43883586,,,,,,,,1033753,0,1500,1500,1000,1500,1000,1000,1000,1000,0,0,0,0,0,0,0,0,,,,,,,,
1634346281.44415188,,,,,,,,1054578,0,1500,1500,1000,1500,1000,1000,1000,1000,0,0,0,0,0,0,0,0,,,,,,,,
1634346281.44587183,,,,,,,,1075403,0,1500,1500,1000,1500,1000,1000,1000,1000,0,0,0,0,0,0,0,0,,,,,,,,
1634346281.44613194,,,,,,,,1096228,0,1500,1500,1000,1500,1000,1000,1000,1000,0,0,0,0,0,0,0,0,,,,,,,,
1634346281.44637990,,,,,,,,1117053,0,1500,1500,1000,1500,1000,1000,1000,1000,0,0,0,0,0,0,0,0,,,,,,,,
1634346281.44665194,,,,,,,,1137878,0,1500,1500,1000,1500,1000,1000,1000,1000,0,0,0,0,0,0,0,0,,,,,,,,
1634346281.44693184,,,,,,,,1158703,0,1500,1500,1000,1500,1000,1000,1000,1000,0,0,0,0,0,0,0,0,,,,,,,,
1634346281.44716787,,,,,,,,1179528,0,1500,1500,1000,1500,1000,1000,1000,1000,0,0,0,0,0,0,0,0,,,,,,,,
1634346281.44739985,,,,,,,,1200353,0,1500,1500,1000,1500,1000,1000,1000,1000,0,0,0,0,0,0,0,0,,,,,,,,
1634346281.44765997,,,,,,,,1221178,0,1500,1500,1000,1500,1000,1000,1000,1000,0,0,0,0,0,0,0,0,,,,,,,,
1634346281.44901991,,,,,,,,1242003,0,1500,1500,1000,1500,1000,1000,1000,1000,0,0,0,0,0,0,0,0,,,,,,,,
1634346281.45019197,,,,,,,,1262828,0,1500,1500,1000,1500,1000,1000,1000,1000,0,0,0,0,0,0,0,0,,,,,,,,
1634346281.45045996,,,,,,,,1283653,0,1500,1500,1000,1500,1000,1000,1000,1000,0,0,0,0,0,0,0,0,,,,,,,,
1634346281.45071197,,,,,,,,1304478,0,1500,1500,1000,1500,1000,1000,1000,1000,0,0,0,0,0,0,0,0,,,,,,,,
1634346281.45102787,,,,,,,,1325303,0,1500,1500,1000,1500,1000,1000,1000,1000,0,0,0,0,0,0,0,0,,,,,,,,
1634346281.45237589,,,,,,,,1346128,0,1500,1500,1000,1500,1000,1000,1000,1000,0,0,0,0,0,0,0,0,,,,,,,,
1634346281.45262384,,,,,,,,1366953,0,1500,1500,1000,1500,1000,1000,1000,1000,0,0,0,0,0,0,0,0,,,,,,,,
1634346281.45285988,,,,,,,,1387778,0,1500,1500,1000,1500,1000,1000,1000,1000,0,0,0,0,0,0,0,0,,,,,,,,
1634346281.45308805,,,,,,,,1408603,0,1500,1500,1000,1500,1000,1000,1000,1000,0,0,0,0,0,0,0,0,,,,,,,,
1634346281.45437598,,,,,,,,1429428,0,1500,1500,1000,1500,1000,1000,1000,1000,0,0,0,0,0,0,0,0,,,,,,,,
1634346281.45465183,,,,,,,,1450253,0,1500,1500,1000,1500,1000,1000,1000,1000,0,0,0,0,0,0,0,0,,,,,,,,
1634346281.45516801,,,,,,,,1471078,0,1500,1500,1000,1500,1000,1000,1000,1000,0,0,0,0,0,0,0,0,,,,,,,,
1634346281.45582795,,,,,,,,1491903,0,1500,1500,1000,1500,1000,1000,1000,1000,0,0,0,0,0,0,0,0,,,,,,,,
1634346281.47365999,,,,,,,,1512728,0,1500,1500,1000,1500,1000,1000,1000,1000,0,0,0,0,0,0,0,0,,,,,,,,
1634346281.47394800,,,,,,,,1533553,0,1500,1500,1000,1500,1000,1000,1000,1000,0,0,0,0,0,0,0,0,,,,,,,,
1634346281.47420788,,,,,,,,1554378,0,1500,1500,1000,1500,1000,1000,1000,1000,0,0,0,0,0,0,0,0,,,,,,,,
1634346281.47909188,,,,,,,,1575203,0,1500,1500,1000,1500,1000,1000,1000,1000,0,0,0,0,0,0,0,0,,,,,,,,
1634346281.47955990,,,,,,,,1596028,0,1500,1500,1000,1500,1000,1000,1000,1000,0,0,0,0,0,0,0,0,,,,,,,,
1634346281.48101997,,,,,,,,1616853,0,1500,1500,1000,1500,1000,1000,1000,1000,0,0,0,0,0,0,0,0,,,,,,,,
1634346281.48126793,,,,,,,,1637678,0,1500,1500,1000,1500,1000,1000,1000,1000,0,0,0,0,0,0,0,0,,,,,,,,
1634346281.48150802,,,,,,,,1658503,0,1500,1500,1000,1500,1000,1000,1000,1000,0,0,0,0,0,0,0,0,,,,,,,,
1634346281.48175192,,,,,,,,1679328,0,1500,1500,1000,1500,1000,1000,1000,1000,0,0,0,0,0,0,0,0,,,,,,,,
1634346281.48200393,,,,,,,,1700153,0,1500,1500,1000,1500,1000,1000,1000,1000,0,0,0,0,0,0,0,0,,,,,,,,
1634346281.49502397,1800,-0.00037689044256694615,8.424223779002205e-05,8.287303899123799e-06,-2.237020271422807e-05,-8.291758422274143e-05,5.721473280573264e-05,,,,,,,,,,,,,,,,,,,,,,,,,,
1634346281.50487185,,,,,,,,1800946,0,1500,1500,1000,1500,0,0,0,0,0,0,0,0,0,0,0,0,,,,,,,,
1634346281.55221581,2040,-0.0001827749947551638,-0.0009408541955053806,-0.34230899810791016,1.5588053429382853e-05,0.00010051373828900978,9.353439236292616e-05,,,,,,,,,,,,,,,,,,,,,,,,,,
1634346281.57427597,,,,,,,,2040850,0,1500,1500,1000,1500,0,0,0,0,0,0,0,0,0,0,0,0,,,,,,,,
1634346281.61693597,2300,2.4691265934961848e-05,-0.003564207348972559,-0.3419291377067566,-4.3729523895308375e-05,-2.0003328700113343e-06,3.6032404750585556e-05,,,,,,,,,,,,,,,,,,,,,,,,,,
1634346281.61998391,,,,,,,,2300746,0,1500,1500,1000,1500,0,0,0,0,0,0,0,0,0,0,0,0,,,,,,,,
1634346281.86071992,2540,0.00016001689073164016,-0.0032380162738263607,-0.3415062129497528,-7.804278720868751e-05,4.718772106571123e-05,4.839991106564412e-06,,,,,,,,,,,,,,,,,,,,,,,,,,
1634346281.86386800,,,,,,,,2540650,0,1500,1500,1000,1500,0,0,0,0,0,0,0,0,0,0,0,0,,,,,,,,
1634346282.11795998,2800,0.00023793010041117668,-0.0020646355114877224,-0.3414209485054016,7.762652239762247e-05,8.134902600431815e-06,6.573848077096045e-05,,,,,,,,,,,,,,,,,,,,,,,,,,
1634346282.12045193,,,,,,,,2800546,0,1500,1500,1000,1500,0,0,0,0,0,0,0,0,0,0,0,0,,,,,,,,
1634346282.35983992,3040,0.000247656338615343,-0.0008361221407540143,-0.3416597843170166,0.0001752457901602611,0.00014571224164683372,8.993248047772795e-05,,,,,,,,,,,,,,,,,,,,,,,,,,
1634346282.36210799,,,,,,,,3040450,0,1500,1500,1000,1500,0,0,0,0,0,0,0,0,0,0,0,0,,,,,,,,
1634346283.25973582,3940,0.00011937205272261053,0.00041541201062500477,-0.343044251203537,-8.298847387777641e-05,-1.0005748663388658e-05,-6.51229711365886e-05,,,,,,,,,,,,,,,,,,,,,,,,,,
1634346283.26226401,,,,,,,,3940923,0,1500,1500,1000,1500,0,0,0,0,0,0,0,0,0,0,0,0,,,,,,,,
1634346283.51752400,4200,0.0001201964623760432,0.00018426499445922673,-0.3431752026081085,0.00018482893938198686,6.578532338608056e-05,-0.0001131691096816212,,,,,,,,,,,,,,,,,,,,,,,,,,
1634346283.52028394,,,,,,,,4200819,0,1500,1500,1000,1500,0,0,0,0,0,0,0,0,0,0,0,0,,,,,,,,
1634346283.76041198,4440,0.0001350456295767799,-1.6879275790415704e-06,-0.3432178199291229,0.00012441337457858026,0.00020852306624874473,-1.4375704267877154e-05,,,,,,,,,,,,,,,,,,,,,,,,,,
1634346283.76312399,,,,,,,,4440723,0,1500,1500,1000,1500,0,0,0,0,0,0,0,0,0,0,0,0,,,,,,,,
1634346284.01712394,4700,0.0001548344298498705,-0.00012742486433126032,-0.3432166576385498,-4.6994136937428266e-05,0.00014028184523340315,8.897950465325266e-05,,,,,,,,,,,,,,,,,,,,,,,,,,
1634346284.02004385,,,,,,,,4700619,0,1500,1500,1000,1500,0,0,0,0,0,0,0,0,0,0,0,0,,,,,,,,
1634346284.25856400,4940,0.00016534168389625847,-0.00016525466344319284,-0.34319499135017395,0.00011995426757493988,2.5054516299860552e-05,0.00018954648112412542,,,,,,,,,,,,,,,,,,,,,,,,,,
1634346284.26343584,,,,,,,,4940523,0,1500,1500,1000,1500,0,0,0,0,0,0,0,0,0,0,0,0,,,,,,,,
1634346284.51976395,5200,0.00017171907529700547,-0.00015511371020693332,-0.34318840503692627,0.00014798609481658787,-1.7565051166457124e-05,-1.0540627044974826e-05,,,,,,,,,,,,,,,,,,,,,,,,,,
1634346284.52238798,,,,,,,,5200419,0,1500,1500,1000,1500,0,0,0,0,0,0,0,0,0,0,0,0,,,,,,,,
1634346284.75674391,5440,0.00015330460155382752,-0.00012195167073514313,-0.3431945741176605,5.377152774599381e-05,0.00013788555224891752,0.00012127107765991241,,,,,,,,,,,,,,,,,,,,,,,,,,
1634346284.75959182,,,,,,,,5440323,0,1500,1500,1000,1500,0,0,0,0,0,0,0,0,0,0,0,0,,,,,,,,
1634346285.02005601,5700,0.0001486403780290857,-8.696609438629821e-05,-0.34318283200263977,0.0001280989672522992,9.157940075965598e-05,0.00015100874588824809,,,,,,,,,,,,,,,,,,,,,,,,,,
1634346285.02315998,,,,,,,,5700219,0,1500,1500,1000,1500,0,0,0,0,0,0,0,0,0,0,0,0,,,,,,,,
1634346285.26004004,5940,0.00012552500993479043,-5.5756499932613224e-05,-0.34318283200263977,-1.310495918005472e-05,1.2025283467664849e-05,2.607163696666248e-05,,,,,,,,,,,,,,,,,,,,,,,,,,
1634346285.26266003,,,,,,,,5940956,0,1500,1500,1000,1500,0,0,0,0,0,0,0,0,0,0,0,0,,,,,,,,
1634346285.51874399,6200,0.00012991471157874912,-3.0348372092703357e-05,-0.3431822657585144,-2.425198908895254e-05,9.883196617010981e-05,0.00018327451834920794,,,,,,,,,,,,,,,,,,,,,,,,,,
1634346285.52268791,,,,,,,,6200852,0,1500,1500,1000,1500,0,0,0,0,0,0,0,0,0,0,0,0,,,,,,,,
1634346285.75890803,6440,0.0001688487536739558,-2.1593090423266403e-05,-0.34319406747817993,9.094119013752788e-05,6.909189687576145e-05,0.00025800630101002753,,,,,,,,,,,,,,,,,,,,,,,,,,
1634346285.76149583,,,,,,,,6440756,0,1500,1500,1000,1500,0,0,0,0,0,0,0,0,0,0,0,0,,,,,,,,
1634346286.01724386,6700,0.00020966921874787658,-1.564257217978593e-05,-0.34322434663772583,8.908944437280297e-05,0.00012590836558956653,0.00012675175094045699,,,,,,,,,,,,,,,,,,,,,,,,,,
1634346286.01984382,,,,,,,,6700652,0,1500,1500,1000,1500,0,0,0,0,0,0,0,0,0,0,0,0,,,,,,,,
1634346286.25632381,6940,0.0002326550311408937,4.065303528477671e-06,-0.3432675004005432,0.0001404226350132376,3.707723953993991e-05,0.000278545543551445,,,,,,,,,,,,,,,,,,,,,,,,,,
1634346286.25919986,,,,,,,,6940556,0,1500,1500,1000,1500,0,0,0,0,0,0,0,0,0,0,0,0,,,,,,,,
1634346286.51659989,7200,0.00022305453603621572,-2.0014704205095768e-07,-0.34331315755844116,0.00016444962238892913,7.283750164788216e-05,0.00012870598584413528,,,,,,,,,,,,,,,,,,,,,,,,,,
1634346286.51934385,,,,,,,,7200452,0,1500,1500,1000,1500,0,0,0,0,0,0,0,0,0,0,0,0,,,,,,,,
1634346286.75634384,7440,0.0002333535230718553,3.40478218276985e-05,-0.3433449864387512,7.062162330839783e-05,0.00011917368101421744,-2.3936065190355293e-05,,,,,,,,,,,,,,,,,,,,,,,,,,
1634346286.75919199,,,,,,,,7440356,0,1500,1500,1000,1500,0,0,0,0,0,0,0,0,0,0,0,0,,,,,,,,
1634346287.02046394,7700,0.00021549072698689997,1.2480672012316063e-05,-0.34337639808654785,0.00016796198906376958,-1.6854683053679764e-05,-4.9375026719644666e-05,,,,,,,,,,,,,,,,,,,,,,,,,,
1634346287.02319193,,,,,,,,7700252,0,1500,1500,1000,1500,0,0,0,0,0,0,0,0,0,0,0,0,,,,,,,,
1634346287.26096392,7940,0.00020144606241956353,-1.3006267181481235e-05,-0.34337249398231506,1.5824924048501998e-05,0.00013648961612489074,0.0001485735410824418,,,,,,,,,,,,,,,,,,,,,,,,,,
1634346287.26377201,,,,,,,,7940156,0,1500,1500,1000,1500,0,0,0,0,0,0,0,0,0,0,0,0,,,,,,,,
1634346287.51665592,8200,0.000179006063262932,-1.5557572623947635e-05,-0.3192407190799713,0.00017679932352621108,0.0001239057455677539,0.0001435810700058937,,,,,,,,,,,,,,,,,,,,,,,,,,
1634346287.52018785,,,,,,,,8200885,0,1500,1500,1000,1500,0,0,0,0,0,0,0,0,0,0,0,0,,,,,,,,
1634346287.75756788,8440,0.0001834558352129534,-1.3904974366596434e-05,-0.26148152351379395,0.00011839179933303967,4.753226676257327e-06,9.030097135109827e-05,,,,,,,,,,,,,,,,,,,,,,,,,,
1634346287.76064396,,,,,,,,8440789,0,1500,1500,1000,1500,0,0,0,0,0,0,0,0,0,0,0,0,,,,,,,,
1634346288.01715994,8700,0.00017947879678104073,-3.0038201657589525e-05,-0.217769593000412,0.0001577598013682291,0.00023777916794642806,7.812459080014378e-05,,,,,,,,,,,,,,,,,,,,,,,,,,
1634346288.02009988,,,,,,,,8700685,0,1500,1500,1000,1500,0,0,0,0,0,0,0,0,0,0,0,0,,,,,,,,
1634346288.26074004,8940,0.00018056982662528753,-1.652068385737948e-05,-0.18968085944652557,0.00014696338621433824,9.824062726693228e-05,0.0001968157012015581,,,,,,,,,,,,,,,,,,,,,,,,,,
1634346288.28218389,,,,,,,,8940589,0,1500,1500,1000,1500,0,0,0,0,0,0,0,0,0,0,0,0,,,,,,,,
1634346288.52202392,9200,0.00019726574828382581,-1.6147578207892366e-06,-0.16850736737251282,0.00015425140736624599,9.781076369108632e-05,0.00014173545059747994,,,,,,,,,,,,,,,,,,,,,,,,,,
1634346288.52517200,,,,,,,,9200485,0,1500,1500,1000,1500,0,0,0,0,0,0,0,0,0,0,0,0,,,,,,,,
1634346288.75648785,9440,0.0002141163859050721,-1.2129244169045705e-05,-0.1549452394247055,0.00013426532677840441,3.849480708595365e-05,1.6867750673554838e-05,,,,,,,,,,,,,,,,,,,,,,,,,,
1634346288.75951195,,,,,,,,9440389,0,1500,1500,1000,1500,0,0,0,0,0,0,0,0,0,0,0,0,,,,,,,,
1634346289.02110004,9700,0.000210020414669998,-1.1173617167514749e-05,-0.14473015069961548,0.00011902554251719266,0.00017224831390194595,0.0001542287354823202,,,,,,,,,,,,,,,,,,,,,,,,,,
1634346289.02413583,,,,,,,,9700285,0,1500,1500,1000,1500,0,0,0,0,0,0,0,0,0,0,0,0,,,,,,,,
1634346289.25713181,9940,0.00020595437672454864,-2.3201151634566486e-05,-0.1381690949201584,0.00017581663269083947,5.4174048273125663e-05,0.00016912826686166227,,,,,,,,,,,,,,,,,,,,,,,,,,
1634346289.26230383,,,,,,,,9940189,0,1500,1500,1000,1500,0,0,0,0,0,0,0,0,0,0,0,0,,,,,,,,
1634346289.52180004,10200,0.00020944615243934095,-1.4051556718186475e-05,-0.13321956992149353,0.00023729614622425288,0.0001579418603796512,0.00019503297517076135,,,,,,,,,,,,,,,,,,,,,,,,,,
1634346289.52489185,,,,,,,,10200918,0,1500,1500,1000,1500,0,0,0,0,0,0,0,0,0,0,0,0,,,,,,,,
1634346289.75779581,10440,0.00021322621614672244,1.095231345971115e-05,-0.1300618201494217,0.0002645601343829185,0.00021316968195606023,5.3928444685880095e-05,,,,,,,,,,,,,,,,,,,,,,,,,,
1634346289.76090384,,,,,,,,10440822,0,1500,1500,1000,1500,0,0,0,0,0,0,0,0,0,0,0,0,,,,,,,,
1634346290.02159595,10700,0.00022415413695853204,1.2910633813589811e-05,-0.12769083678722382,9.088881051866338e-05,8.125874592224136e-05,5.492599302669987e-05,,,,,,,,,,,,,,,,,,,,,,,,,,
1634346290.02494383,,,,,,,,10700718,0,1500,1500,1000,1500,0,0,0,0,0,0,0,0,0,0,0,0,,,,,,,,
1634346290.26011586,10940,0.00022562943922821432,-7.551059752586298e-06,-0.12616324424743652,0.00018780118261929601,9.957982911146246e-06,0.000176193134393543,,,,,,,,,,,,,,,,,,,,,,,,,,
1634346290.26301599,,,,,,,,10940622,0,1500,1500,1000,1500,0,0,0,0,0,0,0,0,0,0,0,0,,,,,,,,
1634346290.51984382,11200,0.00023565634910482913,-5.45251577932504e-06,-0.1250210851430893,0.00017035682685673237,0.00018198585894424468,-4.8586472985334694e-05,,,,,,,,,,,,,,,,,,,,,,,,,,
1634346290.52667189,,,,,,,,11200518,0,1500,1500,1000,1500,0,0,0,0,0,0,0,0,0,0,0,0,,,,,,,,
1634346290.75836802,11440,0.00022168681607581675,-1.3216640581958927e-05,-0.12428759783506393,0.00020078980014659464,8.676199649926275e-05,7.809283124515787e-05,,,,,,,,,,,,,,,,,,,,,,,,,,
1634346290.76143193,,,,,,,,11440422,0,1500,1500,1000,1500,0,0,0,0,0,0,0,0,0,0,0,0,,,,,,,,
1634346291.02078795,11700,0.00022003920457791537,-8.391489245695993e-06,-0.1236739531159401,0.00025644712150096893,8.361797517864034e-05,0.0007297770353034139,,,,,,,,,,,,,,,,,,,,,,,,,,
1634346291.02381182,,,,,,,,11700318,0,1500,1500,1000,1500,0,0,0,0,0,0,0,0,0,0,0,0,,,,,,,,
1634346291.26113200,11940,0.00021700971410609782,-7.91232923802454e-06,-0.1231723204255104,0.00014388785348273814,6.089401722420007e-05,0.0008152148220688105,,,,,,,,,,,,,,,,,,,,,,,,,,
1634346291.26442385,,,,,,,,11940222,0,1500,1500,1000,1500,0,0,0,0,0,0,0,0,0,0,0,0,,,,,,,,
1634346291.52090001,12200,0.00022374626132659614,5.329164650902385e-06,-0.12279210984706879,0.00021220496273599565,0.00016424393106717616,0.0008125632302835584,,,,,,,,,,,,,,,,,,,,,,,,,,
1634346291.52395201,,,,,,,,12200951,0,1500,1500,1000,1500,0,0,0,0,0,0,0,0,0,0,0,0,,,,,,,,
1634346291.76199603,12440,0.00024194362049456686,8.485988473694306e-06,-0.12255159020423889,0.0002707183884922415,0.00012171777052571997,0.000796041393186897,,,,,,,,,,,,,,,,,,,,,,,,,,
1634346291.76501203,,,,,,,,12440855,0,1500,1500,1000,1500,0,0,0,0,0,0,0,0,0,0,0,0,,,,,,,,
1634346292.02144003,12700,0.00023853986931499094,1.4914405255694874e-05,-0.12237896025180817,0.00024105100601445884,0.00021977987489663064,0.0010148006258532405,,,,,,,,,,,,,,,,,,,,,,,,,,
1634346292.02507591,,,,,,,,12700751,0,1500,1500,1000,1500,0,0,0,0,0,0,0,0,0,0,0,0,,,,,,,,
1634346292.26227188,12940,0.00025517557514831424,5.04942363477312e-06,-0.12227044999599457,0.0001521195808891207,0.00019563203386496753,0.000939871184527874,,,,,,,,,,,,,,,,,,,,,,,,,,
1634346292.26528382,,,,,,,,12940655,0,1500,1500,1000,1500,0,0,0,0,0,0,0,0,0,0,0,0,,,,,,,,
1634346292.63040781,13200,0.000251662073424086,-9.597982170816977e-06,-0.12219125032424927,0.000207478558877483,5.5919001169968396e-05,0.0008466627914458513,,,,,,,,,,,,,,,,,,,,,,,,,,
1634346292.63319588,,,,,,,,13200551,0,1500,1500,1000,1500,0,0,0,0,0,0,0,0,0,0,0,0,,,,,,,,
1634346292.84131193,13440,0.0002370388974668458,7.079204806359485e-06,-0.1221390813589096,0.00024368721642531455,0.000230216232012026,0.0008863509865477681,,,,,,,,,,,,,,,,,,,,,,,,,,
1634346292.84870386,,,,,,,,13440455,0,1500,1500,1000,1500,0,0,0,0,0,0,0,0,0,0,0,0,,,,,,,,
1634346293.10409594,13700,0.00023066978610586375,1.2339853128651157e-05,-0.12208368629217148,0.0001777204597601667,8.478471136186272e-05,0.0010272662620991468,,,,,,,,,,,,,,,,,,,,,,,,,,
1634346293.10721183,,,,,,,,13700351,0,1500,1500,1000,1500,0,0,0,0,0,0,0,0,0,0,0,0,,,,,,,,
1634346293.25683188,13940,0.0002223679330199957,2.47368971031392e-05,-0.12205272912979126,0.00022763207380194217,0.00023405956744682044,0.0009770668111741543,,,,,,,,,,,,,,,,,,,,,,,,,,
1634346293.26049590,,,,,,,,13940255,0,1500,1500,1000,1500,0,0,0,0,0,0,0,0,0,0,0,0,,,,,,,,
1634346293.51695585,14200,0.0002274529542773962,3.680748341139406e-05,-0.12203062325716019,0.00012034196697641164,0.00020214203686919063,0.0009286431013606489,,,,,,,,,,,,,,,,,,,,,,,,,,
1634346293.51977992,,,,,,,,14200151,0,1500,1500,1000,1500,0,0,0,0,0,0,0,0,0,0,0,0,,,,,,,,
1634346293.75819993,14440,0.00023015093756839633,3.12724441755563e-05,-0.12201925367116928,0.00022612782777287066,0.00015772612823639065,0.0009442133014090359,,,,,,,,,,,,,,,,,,,,,,,,,,
1634346293.76104784,,,,,,,,14440888,0,1500,1500,1000,1500,0,0,0,0,0,0,0,0,0,0,0,0,,,,,,,,
1634346294.02146387,14700,0.000241549001657404,6.361130363075063e-05,-0.12200769782066345,0.00029067404102534056,0.00022067454119678587,0.0008854793268255889,,,,,,,,,,,,,,,,,,,,,,,,,,
1634346294.02502394,,,,,,,,14700784,0,1500,1500,1000,1500,0,0,0,0,0,0,0,0,0,0,0,0,,,,,,,,
1634346294.26145196,14940,0.00024264471721835434,8.661380707053468e-05,-0.12202326953411102,0.0002869055315386504,0.00020652000966947526,0.0009261774248443544,,,,,,,,,,,,,,,,,,,,,,,,,,
1634346294.26829195,,,,,,,,14940688,0,1500,1500,1000,1500,0,0,0,0,0,0,0,0,0,0,0,0,,,,,,,,
1634346294.51996398,15200,0.00025021721376106143,7.218543032649904e-05,-0.12203174084424973,0.00034201558446511626,0.00021750082669313997,0.0010449072578921914,,,,,,,,,,,,,,,,,,,,,,,,,,
1634346294.52308798,,,,,,,,15200584,0,1500,1500,1000,1500,0,0,0,0,0,0,0,0,0,0,0,0,,,,,,,,
1634346294.75762796,15440,0.00024181602930184454,5.665712524205446e-05,-0.1220320612192154,0.00017517647938802838,0.000280284381005913,0.0009044749895110726,,,,,,,,,,,,,,,,,,,,,,,,,,
1634346294.76187992,,,,,,,,15440488,0,1500,1500,1000,1500,0,0,0,0,0,0,0,0,0,0,0,0,,,,,,,,
1634346295.01702785,15700,0.00025320073473267257,5.417523789219558e-05,-0.12203331291675568,0.0002412901376374066,0.0001605066645424813,0.0008864493574947119,,,,,,,,,,,,,,,,,,,,,,,,,,
1634346295.01991987,,,,,,,,15700384,0,1500,1500,1000,1500,0,0,0,0,0,0,0,0,0,0,0,0,,,,,,,,
1634346295.25949597,15940,0.0002495550725143403,5.331692591425963e-05,-0.12202800065279007,0.00022605052799917758,0.0002487266028765589,0.0009778407402336597,,,,,,,,,,,,,,,,,,,,,,,,,,
1634346295.26611996,,,,,,,,15940288,0,1500,1500,1000,1500,0,0,0,0,0,0,0,0,0,0,0,0,,,,,,,,
1634346295.52037597,16200,0.0002384718245593831,4.2181873141089454e-05,-0.12202247232198715,0.0003261466627009213,0.0001709838688839227,0.0009202116052620113,,,,,,,,,,,,,,,,,,,,,,,,,,
1634346295.52320790,,,,,,,,16200184,0,1500,1500,1000,1500,0,0,0,0,0,0,0,0,0,0,0,0,,,,,,,,
1634346295.76330781,16440,0.00024240628408733755,3.345926234032959e-05,-0.12201330810785294,0.00024041162396315485,8.437009819317609e-05,0.0009477062849327922,,,,,,,,,,,,,,,,,,,,,,,,,,
1634346295.77155590,,,,,,,,16440921,0,1500,1500,1000,1500,0,0,0,0,0,0,0,0,0,0,0,0,,,,,,,,
1634346296.01809192,16700,0.0002488519821781665,3.102887058048509e-05,-0.12200910598039627,0.0002781004586722702,0.00022968041594140232,0.0008445206331089139,,,,,,,,,,,,,,,,,,,,,,,,,,
1634346296.02375197,,,,,,,,16700817,0,1500,1500,1000,1500,0,0,0,0,0,0,0,0,0,0,0,0,,,,,,,,
1634346296.25759983,16940,0.0002449780877213925,5.26284784427844e-05,-0.12202459573745728,0.00017406578990630805,0.00027149583911523223,0.0008200558950193226,,,,,,,,,,,,,,,,,,,,,,,,,,
1634346296.26581192,,,,,,,,16940721,0,1500,1500,1000,1500,0,0,0,0,0,0,0,0,0,0,0,0,,,,,,,,
1634346296.51939988,17200,0.0002476910303812474,7.941205694805831e-05,-0.12201996892690659,0.0003739625681191683,0.00040375773096457124,0.0009455464314669371,,,,,,,,,,,,,,,,,,,,,,,,,,
1634346296.52236390,,,,,,,,17200617,0,1500,1500,1000,1500,0,0,0,0,0,0,0,0,0,0,0,0,,,,,,,,
1634346296.75732803,17440,0.00025445857318118215,0.00010052687139250338,-0.12202683836221695,0.000277771963737905,0.00014389710850082338,0.0008290930418297648,,,,,,,,,,,,,,,,,,,,,,,,,,
1634346296.76091981,,,,,,,,17440521,0,1500,1500,1000,1500,0,0,0,0,0,0,0,0,0,0,0,0,,,,,,,,
1634346297.02133584,17700,0.0002868937735911459,9.660032083047554e-05,-0.1220507025718689,9.931248496286571e-05,0.00012476518168114126,0.0009887574706226587,,,,,,,,,,,,,,,,,,,,,,,,,,
1634346297.02428389,,,,,,,,17700417,0,1500,1500,1000,1500,0,0,0,0,0,0,0,0,0,0,0,0,,,,,,,,
1634346297.25717187,17940,0.0002879322273656726,8.027211151784286e-05,-0.12208203226327896,0.00031068004318512976,0.00022430882381740957,0.0009968088706955314,,,,,,,,,,,,,,,,,,,,,,,,,,
1634346297.26053190,,,,,,,,17940321,0,1500,1500,1000,1500,0,0,0,0,0,0,0,0,0,0,0,0,,,,,,,,
1634346297.51741982,18200,0.0003140347544103861,6.366372690536082e-05,-0.12210202217102051,0.00026040597003884614,0.0003287675208412111,0.0009122782503254712,,,,,,,,,,,,,,,,,,,,,,,,,,
1634346297.52028394,,,,,,,,18200217,0,1500,1500,1000,1500,0,0,0,0,0,0,0,0,0,0,0,0,,,,,,,,
1634346297.76284003,18440,0.0003027657512575388,2.6641295335139148e-05,-0.12211870402097702,0.0002726200327742845,0.00018236706091556698,0.0008518152171745896,,,,,,,,,,,,,,,,,,,,,,,,,,
1634346297.76581192,,,,,,,,18440954,0,1500,1500,1000,1500,0,0,0,0,0,0,0,0,0,0,0,0,,,,,,,,
1634346298.01783586,18700,0.0002885712601710111,2.2840284145786427e-05,-0.12211085855960846,0.0002447101578582078,0.0002031037729466334,0.001006056321784854,,,,,,,,,,,,,,,,,,,,,,,,,,
1634346298.02115989,,,,,,,,18700850,0,1500,1500,1000,1500,0,0,0,0,0,0,0,0,0,0,0,0,,,,,,,,
1634346298.25856781,18940,0.00028513139113783836,3.7860361771890894e-05,-0.12210008502006531,0.00028385157929733396,0.00021893407392781228,0.0009758792584761977,,,,,,,,,,,,,,,,,,,,,,,,,,
1634346298.26150393,,,,,,,,18940754,0,1500,1500,1000,1500,0,0,0,0,0,0,0,0,0,0,0,0,,,,,,,,
1634346298.52258396,19200,0.0002784446405712515,5.477747254190035e-05,-0.12209883332252502,0.00034755366505123675,0.00027632422279566526,0.0008765328675508499,,,,,,,,,,,,,,,,,,,,,,,,,,
1634346298.52527595,,,,,,,,19200650,0,1500,1500,1000,1500,0,0,0,0,0,0,0,0,0,0,0,0,,,,,,,,
1634346298.75758004,19440,0.0003165712405461818,8.851791062625125e-05,-0.12207354605197906,0.00021797730005346239,0.00015617029566783458,0.00020293393754400313,,,,,,,,,,,,,,,,,,,,,,,,,,
1634346298.76033187,,,,,,,,19440554,0,1500,1500,1000,1500,0,0,0,0,0,0,0,0,0,0,0,0,,,,,,,,
1634346299.02202392,19700,0.00033303810050711036,9.910095832310617e-05,-0.12208502739667892,0.00012548804807011038,3.238288627471775e-05,0.00016878658789210021,,,,,,,,,,,,,,,,,,,,,,,,,,
1634346299.02918792,,,,,,,,19700450,0,1500,1500,1000,1500,0,0,0,0,0,0,0,0,0,0,0,0,,,,,,,,
1634346299.25829196,19940,0.0003499658196233213,0.00011201356392120942,-0.122100330889225,0.00022749131312593818,8.678875747136772e-05,0.00023796439927536994,,,,,,,,,,,,,,,,,,,,,,,,,,
1634346299.26192403,,,,,,,,19940354,0,1500,1500,1000,1500,0,0,0,0,0,0,0,0,0,0,0,0,,,,,,,,
1634346299.51938391,20200,0.0003704869595821947,0.00013533170567825437,-0.1221180111169815,0.000188962891115807,9.840376151259989e-05,0.0001585889549460262,,,,,,,,,,,,,,,,,,,,,,,,,,
1634346299.52222800,,,,,,,,20200250,0,1500,1500,1000,1500,0,0,0,0,0,0,0,0,0,0,0,0,,,,,,,,
1634346299.76201582,20440,0.0003847181797027588,0.00015634717419743538,-0.1221410408616066,0.00016858802700880915,0.00015936800627969205,0.00017410749569535255,,,,,,,,,,,,,,,,,,,,,,,,,,
1634346299.76510382,,,,,,,,20440154,0,1500,1500,1000,1500,0,0,0,0,0,0,0,0,0,0,0,0,,,,,,,,
1634346300.02069187,20700,0.0003980326000601053,0.0001686396572040394,-0.12216589599847794,0.00015708072169218212,0.00011828311835415661,0.00015311538300011307,,,,,,,,,,,,,,,,,,,,,,,,,,
1634346300.02369595,,,,,,,,20700883,0,1500,1500,1000,1500,0,0,0,0,0,0,0,0,0,0,0,0,,,,,,,,
1634346300.26277590,20940,0.0004043500230181962,0.00017661495076026767,-0.12219249457120895,0.00017531593039166182,0.00010990406735800207,0.00019711890490725636,,,,,,,,,,,,,,,,,,,,,,,,,,
1634346300.26554799,,,,,,,,20940787,0,1500,1500,1000,1500,0,0,0,0,0,0,0,0,0,0,0,0,,,,,,,,
1634346300.52234793,21200,0.0004120204539503902,0.00017864559777081013,-0.122219018638134,0.0002542170404922217,7.300604193005711e-05,0.0002102978905895725,,,,,,,,,,,,,,,,,,,,,,,,,,
1634346300.52507591,,,,,,,,21200683,0,1500,1500,1000,1500,0,0,0,0,0,0,0,0,0,0,0,0,,,,,,,,
1634346300.75866389,21440,0.00039997900603339076,0.0001701062428764999,-0.12223923206329346,0.00015290456940419972,3.256715717725456e-05,0.0001676606188993901,,,,,,,,,,,,,,,,,,,,,,,,,,
1634346300.76165199,,,,,,,,21440587,0,1500,1500,1000,1500,0,0,0,0,0,0,0,0,0,0,0,0,,,,,,,,
1634346301.02243996,21700,0.0003963049966841936,0.0001539297227282077,-0.12225529551506042,0.00020832469454035163,8.048255403991789e-05,0.00025493756402283907,,,,,,,,,,,,,,,,,,,,,,,,,,
1634346301.02543998,,,,,,,,21700483,0,1500,1500,1000,1500,0,0,0,0,0,0,0,0,0,0,0,0,,,,,,,,
1634346301.34236383,22020,0.00038629380287602544,0.0001452007272746414,-0.1222756877541542,0.00018200498016085476,0.00010557094356045127,0.00013950822176411748,,,,,,,,,,,,,,,,,,,,,,,,,,
1634346301.35277581,,,,,,,,22020355,0,1500,1500,1000,1500,0,0,0,0,0,0,0,0,0,0,0,0,,,,,,,,
1634346301.52167583,22200,0.00037963304203003645,0.0001352922699879855,-0.12228696048259735,0.0001532729947939515,0.00011658454604912549,0.00014446790737565607,,,,,,,,,,,,,,,,,,,,,,,,,,
1634346301.52622390,,,,,,,,22200283,0,1500,1500,1000,1500,0,0,0,0,0,0,0,0,0,0,0,0,,,,,,,,
1634346301.76163197,22440,0.0003716608916874975,0.00012223956582602113,-0.12229456007480621,0.00015977928705979139,4.6609085984528065e-05,0.00013135775225237012,,,,,,,,,,,,,,,,,,,,,,,,,,
1634346301.76512003,,,,,,,,22440187,0,1500,1500,1000,1500,0,0,0,0,0,0,0,0,0,0,0,0,,,,,,,,
1634346302.01923203,22700,0.00036597729194909334,0.00012017375411232933,-0.12229816615581512,0.00017296029545832425,7.040465425234288e-05,0.00017530718469060957,,,,,,,,,,,,,,,,,,,,,,,,,,
1634346302.02560401,,,,,,,,22700916,0,1500,1500,1000,1500,0,0,0,0,0,0,0,0,0,0,0,0,,,,,,,,
1634346302.26240802,22940,0.0003638506750576198,0.00011943589925067499,-0.12230364978313446,0.00011639059812296182,5.5238750064745545e-05,0.00020791823044419289,,,,,,,,,,,,,,,,,,,,,,,,,,
1634346302.26658797,,,,,,,,22940820,0,1500,1500,1000,1500,0,0,0,0,0,0,0,0,0,0,0,0,,,,,,,,
1634346302.52178383,23200,0.0003628673730418086,0.0001213501236634329,-0.12230661511421204,0.00013141777890268713,9.883036545943469e-05,9.820080595090985e-05,,,,,,,,,,,,,,,,,,,,,,,,,,
1634346302.52480793,,,,,,,,23200716,0,1500,1500,1000,1500,0,0,0,0,0,0,0,0,0,0,0,0,,,,,,,,
1634346302.76135588,23440,0.00036073633236810565,0.00012019618588965386,-0.12230312824249268,0.00010202842531725764,8.187326602637768e-05,9.154205326922238e-05,,,,,,,,,,,,,,,,,,,,,,,,,,
1634346302.76443982,,,,,,,,23440620,0,1500,1500,1000,1500,0,0,0,0,0,0,0,0,0,0,0,0,,,,,,,,
1634346303.01888394,23700,0.0003611275169532746,0.00011710906255757436,-0.12231232970952988,0.00013393793778959662,2.0676787244156003e-05,8.799598435871303e-05,,,,,,,,,,,,,,,,,,,,,,,,,,
1634346303.02182388,,,,,,,,23700516,0,1500,1500,1000,1500,0,0,0,0,0,0,0,0,0,0,0,0,,,,,,,,
1634346303.26052785,23940,0.00037083058850839734,0.00011769637785619125,-0.12231600284576416,0.0001487065019318834,0.00014763505896553397,0.00011245538189541548,,,,,,,,,,,,,,,,,,,,,,,,,,
1634346303.26371598,,,,,,,,23940420,0,1500,1500,1000,1500,0,0,0,0,0,0,0,0,0,0,0,0,,,,,,,,
1634346303.51803994,24200,0.00037863035686314106,0.0001258479751413688,-0.12231623381376266,0.00020080867398064584,9.647759725339711e-05,0.00015477185661438853,,,,,,,,,,,,,,,,,,,,,,,,,,
1634346303.52103186,,,,,,,,24200316,0,1500,1500,1000,1500,0,0,0,0,0,0,0,0,0,0,0,0,,,,,,,,
1634346303.75961185,24440,0.00038338926970027387,0.00012892049562651664,-0.12231890112161636,0.0002148228231817484,0.00011376518523320556,0.00016404704365413636,,,,,,,,,,,,,,,,,,,,,,,,,,
1634346303.76278782,,,,,,,,24440220,0,1500,1500,1000,1500,0,0,0,0,0,0,0,0,0,0,0,0,,,,,,,,
1634346304.02093601,24700,0.0003914892440661788,0.00013916174066253006,-0.12232008576393127,0.0001586155703989789,7.550092414021492e-05,0.00014079202082939446,,,,,,,,,,,,,,,,,,,,,,,,,,
1634346304.02414799,,,,,,,,24700949,0,1500,1500,1000,1500,0,0,0,0,0,0,0,0,0,0,0,0,,,,,,,,
1634346304.26324391,24940,0.000399583310354501,0.00014819421630818397,-0.12231875956058502,0.00012759257515426725,6.889153155498207e-05,0.00012708599388133734,,,,,,,,,,,,,,,,,,,,,,,,,,
1634346304.26635599,,,,,,,,24940853,0,1500,1500,1000,1500,0,0,0,0,0,0,0,0,0,0,0,0,,,,,,,,
1634346304.51807189,25200,0.00041216594399884343,0.00016057307948358357,-0.12231744080781937,0.00013119082723278552,0.00021026490139774978,0.00020301291078794748,,,,,,,,,,,,,,,,,,,,,,,,,,
1634346304.52105188,,,,,,,,25200749,0,1500,1500,1000,1500,0,0,0,0,0,0,0,0,0,0,0,0,,,,,,,,
1634346304.76163983,25440,0.00042081839637830853,0.00017533429490868002,-0.12232024222612381,0.00019361911108717322,0.0001134982449002564,6.616687460336834e-05,,,,,,,,,,,,,,,,,,,,,,,,,,
1634346304.76465201,,,,,,,,25440653,0,1500,1500,1000,1500,0,0,0,0,0,0,0,0,0,0,0,0,,,,,,,,
1634346305.02169991,25700,0.00043402364826761186,0.00018887991609517485,-0.12232854962348938,0.00017153263615909964,0.00010216340888291597,0.00019457150483503938,,,,,,,,,,,,,,,,,,,,,,,,,,
1634346305.02487993,,,,,,,,25700549,0,1500,1500,1000,1500,0,0,0,0,0,0,0,0,0,0,0,0,,,,,,,,
1634346305.25810790,25940,0.000448811479145661,0.00020283795311115682,-0.12233049422502518,0.0001471363502787426,0.00011315126903355122,0.0001276713446713984,,,,,,,,,,,,,,,,,,,,,,,,,,
1634346305.26119590,,,,,,,,25940453,0,1500,1500,1000,1500,0,0,0,0,0,0,0,0,0,0,0,0,,,,,,,,
1634346305.51803184,26200,0.00046512664994224906,0.0002165705809602514,-0.12233873456716537,0.00018981988250743598,0.00016711989883333445,0.00013965362450107932,,,,,,,,,,,,,,,,,,,,,,,,,,
1634346305.52095985,,,,,,,,26200349,0,1500,1500,1000,1500,0,0,0,0,0,0,0,0,0,0,0,0,,,,,,,,
1634346305.76042795,26440,0.0004788500664290041,0.00023065485584083945,-0.12235379964113235,0.000187743513379246,0.00010806071804836392,8.61399166751653e-05,,,,,,,,,,,,,,,,,,,,,,,,,,
1634346305.76343584,,,,,,,,26440253,0,1500,1500,1000,1500,0,0,0,0,0,0,0,0,0,0,0,0,,,,,,,,
1634346306.01893187,26700,0.0004903104272671044,0.0002459745155647397,-0.12236151099205017,0.0001089126308215782,4.5526394387707114e-05,0.00010479583579581231,,,,,,,,,,,,,,,,,,,,,,,,,,
1634346306.02209997,,,,,,,,26700149,0,1500,1500,1000,1500,0,0,0,0,0,0,0,0,0,0,0,0,,,,,,,,
1634346306.26351190,26940,0.0005074823857285082,0.0002523520670365542,-0.12237048149108887,0.0001452307915315032,0.00013438114547170699,0.0001026016689138487,,,,,,,,,,,,,,,,,,,,,,,,,,
1634346306.26644397,,,,,,,,26940886,0,1500,1500,1000,1500,0,0,0,0,0,0,0,0,0,0,0,0,,,,,,,,
1634346306.52219200,27200,0.0005181797896511853,0.0002684163919184357,-0.1223810538649559,0.0001074870815500617,7.040437776595354e-05,9.920493175741285e-05,,,,,,,,,,,,,,,,,,,,,,,,,,
1634346306.52529597,,,,,,,,27200782,0,1500,1500,1000,1500,0,0,0,0,0,0,0,0,0,0,0,0,,,,,,,,
1634346306.76095581,27440,0.0005374107859097421,0.0002829509321600199,-0.12239006161689758,0.00024029372434597462,0.00011977125541307032,0.00019558290659915656,,,,,,,,,,,,,,,,,,,,,,,,,,
1634346306.76383591,,,,,,,,27440686,0,1500,1500,1000,1500,0,0,0,0,0,0,0,0,0,0,0,0,,,,,,,,
1634346307.02174783,27700,0.0005494243232533336,0.00029693712713196874,-0.12240908294916153,0.0001433629367966205,0.0001828010135795921,0.0001034860615618527,,,,,,,,,,,,,,,,,,,,,,,,,,
1634346307.02482390,,,,,,,,27700582,0,1500,1500,1000,1500,0,0,0,0,0,0,0,0,0,0,0,0,,,,,,,,
1634346307.25914001,27940,0.0005607871571555734,0.00031160953221842647,-0.1224227324128151,0.00021154757996555418,0.0001661225687712431,0.0001955261395778507,,,,,,,,,,,,,,,,,,,,,,,,,,
1634346307.26201987,,,,,,,,27940486,0,1500,1500,1000,1500,0,0,0,0,0,0,0,0,0,0,0,0,,,,,,,,
1634346307.52317190,28200,0.0005751856951974332,0.00032552689663134515,-0.12243778258562088,0.00018110078235622495,0.00012820115080103278,0.00018406292656436563,,,,,,,,,,,,,,,,,,,,,,,,,,
1634346307.52626395,,,,,,,,28200382,0,1500,1500,1000,1500,0,0,0,0,0,0,0,0,0,0,0,0,,,,,,,,
1634346307.76138783,28440,0.0005844281986355782,0.0003392590442672372,-0.12244893610477448,0.00020324075012467802,0.00013046481763012707,0.00015334674390032887,,,,,,,,,,,,,,,,,,,,,,,,,,
1634346307.76435184,,,,,,,,28440286,0,1500,1500,1000,1500,0,0,0,0,0,0,0,0,0,0,0,0,,,,,,,,
1634346308.02230787,28700,0.0005937288515269756,0.0003476564306765795,-0.1224689707159996,0.00018220639321953058,0.00012141210027039051,0.00019330836948938668,,,,,,,,,,,,,,,,,,,,,,,,,,
1634346308.02551198,,,,,,,,28700182,0,1500,1500,1000,1500,0,0,0,0,0,0,0,0,0,0,0,0,,,,,,,,
1634346308.25889587,28940,0.0006086736684665084,0.00035811818088404834,-0.12247855961322784,0.00016826782666612417,0.00015642913058400154,0.00019329428323544562,,,,,,,,,,,,,,,,,,,,,,,,,,
1634346308.26219201,,,,,,,,28940919,0,1500,1500,1000,1500,0,0,0,0,0,0,0,0,0,0,0,0,,,,,,,,
1634346308.52507997,29200,0.0006211575819179416,0.00037728360621258616,-0.12249255180358887,0.0001857245370047167,0.00015012879157438874,0.00011638973955996335,,,,,,,,,,,,,,,,,,,,,,,,,,
1634346308.52818394,,,,,,,,29200815,0,1500,1500,1000,1500,0,0,0,0,0,0,0,0,0,0,0,0,,,,,,,,
1634346308.76361203,29440,0.0006378637044690549,0.0003849610802717507,-0.12250411510467529,0.00025022763293236494,0.00012323367991484702,0.00012814754154533148,,,,,,,,,,,,,,,,,,,,,,,,,,
1634346308.76684403,,,,,,,,29440719,0,1500,1500,1000,1500,0,0,0,0,0,0,0,0,0,0,0,0,,,,,,,,
1634346309.02196789,29700,0.0006522709736600518,0.00039065617602318525,-0.12252659350633621,0.00012722867541015148,0.0001434001896996051,0.00015301001258194447,,,,,,,,,,,,,,,,,,,,,,,,,,
1634346309.02698398,,,,,,,,29700615,0,1500,1500,1000,1500,0,0,0,0,0,0,0,0,0,0,0,0,,,,,,,,
1634346309.25864792,29940,0.0006587669486179948,0.00039750986616127193,-0.12253832817077637,0.000152181601151824,9.142418275587261e-05,0.00014365566312335432,,,,,,,,,,,,,,,,,,,,,,,,,,
1634346309.26167583,,,,,,,,29940519,0,1500,1500,1000,1500,0,0,0,0,0,0,0,0,0,0,0,0,,,,,,,,
1634346309.52420402,30200,0.0006654648459516466,0.000406716950237751,-0.12255467474460602,0.0002148584317183122,0.00022315967362374067,0.00011871696915477514,,,,,,,,,,,,,,,,,,,,,,,,,,
1634346309.53144383,,,,,,,,30200415,0,1500,1500,1000,1500,0,0,0,0,0,0,0,0,0,0,0,0,,,,,,,,
1634346309.75847197,30440,0.0006765351863577962,0.0004115331976208836,-0.12257158011198044,0.00031211128225550056,4.21088479924947e-05,0.0001164727145805955,,,,,,,,,,,,,,,,,,,,,,,,,,
1634346309.76153994,,,,,,,,30440319,0,1500,1500,1000,1500,0,0,0,0,0,0,0,0,0,0,0,0,,,,,,,,
1634346310.01843596,30700,0.0006876941188238561,0.0004217321693431586,-0.122590072453022,0.0003049287188332528,0.0001485265966039151,0.00012553640408441424,,,,,,,,,,,,,,,,,,,,,,,,,,
1634346310.02205992,,,,,,,,30700215,0,1500,1500,1000,1500,0,0,0,0,0,0,0,0,0,0,0,0,,,,,,,,
1634346310.26175594,30940,0.0006991011323407292,0.0004353398981038481,-0.12261149287223816,0.00018349247693549842,0.00024850876070559025,0.00016266826423816383,,,,,,,,,,,,,,,,,,,,,,,,,,
1634346310.26484394,,,,,,,,30940952,0,1500,1500,1000,1500,0,0,0,0,0,0,0,0,0,0,0,0,,,,,,,,
1634346310.52187991,31200,0.0007150618475861847,0.0004399856843519956,-0.1226300299167633,0.00024775025667622685,0.00013946369290351868,0.00014287393423728645,,,,,,,,,,,,,,,,,,,,,,,,,,
1634346310.52478385,,,,,,,,31200848,0,1500,1500,1000,1500,0,0,0,0,0,0,0,0,0,0,0,0,,,,,,,,
1634346310.76217985,31440,0.0007292955997399986,0.00044666320900432765,-0.12264231592416763,0.00021163276687730104,0.0001651603088248521,0.00017607051995582879,,,,,,,,,,,,,,,,,,,,,,,,,,
1634346310.76528382,,,,,,,,31440752,0,1500,1500,1000,1500,0,0,0,0,0,0,0,0,0,0,0,0,,,,,,,,
1634346311.04159594,31720,0.0007390068494714797,0.0004591546021401882,-0.12265989184379578,0.00021560362074524164,0.00011393427848815918,0.0001347553334198892,,,,,,,,,,,,,,,,,,,,,,,,,,
1634346311.05475998,,,,,,,,31720640,0,1500,1500,1000,1500,0,0,0,0,0,0,0,0,0,0,0,0,,,,,,,,
1634346311.26033998,31940,0.0007451052078977227,0.0004677043471019715,-0.12266897410154343,0.00024151417892426252,0.00019154403707943857,0.00016042692004702985,,,,,,,,,,,,,,,,,,,,,,,,,,
1634346311.26339602,,,,,,,,31940552,0,1500,1500,1000,1500,0,0,0,0,0,0,0,0,0,0,0,0,,,,,,,,
1634346311.52044392,32200,0.00075429497519508,0.0004730051732622087,-0.12268827855587006,0.0002575550170149654,0.0001428108080290258,0.00012188847176730633,,,,,,,,,,,,,,,,,,,,,,,,,,
1634346311.52337193,,,,,,,,32200448,0,1500,1500,1000,1500,0,0,0,0,0,0,0,0,0,0,0,0,,,,,,,,
1634346311.76192403,32440,0.0007598020019941032,0.0004818682500626892,-0.12270552664995193,0.00014804693637415767,0.000252593687037006,0.00011658002040348947,,,,,,,,,,,,,,,,,,,,,,,,,,
1634346311.76487589,,,,,,,,32440352,0,1500,1500,1000,1500,0,0,0,0,0,0,0,0,0,0,0,0,,,,,,,,
1634346312.02261591,32700,0.0007748564821667969,0.0004983064718544483,-0.1227133721113205,0.00030729957506991923,0.00019226301810704172,0.00013838012819178402,,,,,,,,,,,,,,,,,,,,,,,,,,
1634346312.02569985,,,,,,,,32700248,0,1500,1500,1000,1500,0,0,0,0,0,0,0,0,0,0,0,0,,,,,,,,
1634346312.26006389,32940,0.000788224337156862,0.0005124294548295438,-0.12272343039512634,0.0001974462647922337,0.00021337033831514418,0.00019712559878826141,,,,,,,,,,,,,,,,,,,,,,,,,,
1634346312.26309204,,,,,,,,32940152,0,1500,1500,1000,1500,0,0,0,0,0,0,0,0,0,0,0,0,,,,,,,,
1634346312.52280784,33200,0.0008158679702319205,0.0005341805517673492,-0.12273906171321869,0.00029381306376308203,0.00020370306447148323,0.0001954273320734501,,,,,,,,,,,,,,,,,,,,,,,,,,
1634346312.52571988,,,,,,,,33200881,0,1500,1500,1000,1500,0,0,0,0,0,0,0,0,0,0,0,0,,,,,,,,
1634346312.75924802,33440,0.0008412848692387342,0.0005625181365758181,-0.12275367230176926,0.0003307263250462711,0.00022067053942009807,0.00010067597031593323,,,,,,,,,,,,,,,,,,,,,,,,,,
1634346312.76242399,,,,,,,,33440785,0,1500,1500,1000,1500,0,0,0,0,0,0,0,0,0,0,0,0,,,,,,,,
1634346313.02523994,33700,0.0008685545763000846,0.000592046941164881,-0.12276817113161087,0.00012962083565071225,0.00021385913714766502,0.00016322149895131588,,,,,,,,,,,,,,,,,,,,,,,,,,
1634346313.02717590,,,,,,,,,,,,,,,,,,,,,,,,,,0.0,0.0,0,0,259,0.15000000596046448,-2.2061703205108643,0.0
1634346313.02853584,,,,,,,,33700681,0,1500,1500,1000,1500,0,0,0,0,0,0,0,0,0,0,0,0,,,,,,,,
1634346313.26144791,33940,0.0009023587917909026,0.0006264963303692639,-0.12278605252504349,0.00017994659719988704,0.0001985883864108473,0.00021621849737130105,,,,,,,,,,,,,,,,,,,,,,,,,,
1634346313.26367998,,,,,,,,,,,,,,,,,,,,,,,,,,0.0,14.989999771118164,-7,-7,0,28.260000228881836,-2.2061703205108643,0.0
1634346313.26496792,,,,,,,,33940585,0,1494,1900,1020,1497,0,0,0,0,0,0,0,0,0,0,0,0,,,,,,,,
1634346313.51921201,34200,0.000942177081014961,0.0006674035103060305,-0.12281472235918045,0.00026270776288583875,0.00027124688494950533,8.378271013498306e-05,,,,,,,,,,,,,,,,,,,,,,,,,,
1634346313.52121186,,,,,,,,,,,,,,,,,,,,,,,,,,0.0,14.989999771118164,-7,-7,0,28.260000228881836,2197.793701171875,0.0
1634346313.52731991,,,,,,,,34200481,0,1494,1900,1280,1497,0,0,0,0,0,0,0,0,0,0,0,0,,,,,,,,
1634346313.76088381,34440,0.0009834745433181524,0.0007095392793416977,-0.12284064292907715,0.0002843928523361683,0.00014270696556195617,0.00023640348808839917,,,,,,,,,,,,,,,,,,,,,,,,,,
1634346313.76342392,,,,,,,,,,,,,,,,,,,,,,,,,,0.0,14.989999771118164,-7,-7,0,28.25,2197.793701171875,0.0
1634346313.76471186,,,,,,,,34440385,0,1494,1900,1520,1497,0,0,0,0,0,0,0,0,0,0,0,0,,,,,,,,
1634346314.02121186,34700,0.0010261726565659046,0.000757139059714973,-0.12286078184843063,0.00022147930576466024,0.00021047797054052353,0.00022729989723302424,,,,,,,,,,,,,,,,,,,,,,,,,,
1634346314.02352786,,,,,,,,,,,,,,,,,,,,,,,,,,0.0,14.989999771118164,-7,-7,0,28.25,2166.958251953125,0.0
1634346314.02514791,,,,,,,,34700281,0,1494,1900,1780,1497,0,0,0,0,0,0,0,0,0,0,0,0,,,,,,,,
1634346314.26351595,34940,0.0010677926475182176,0.0007978568901307881,-0.122892826795578,0.00022252509370446205,0.00022638114751316607,0.00010354569531045854,,,,,,,,,,,,,,,,,,,,,,,,,,
1634346314.26561594,,,,,,,,,,,,,,,,,,,,,,,,,,0.0,14.989999771118164,-7,-7,1,28.25,1782.686767578125,0.0
1634346314.26698804,,,,,,,,34940185,0,1493,1900,2000,1497,0,0,0,0,0,0,0,0,0,0,0,0,,,,,,,,
1634346314.52314401,35200,0.0011193298269063234,0.001006634789519012,-0.12294181436300278,0.00021900137653574347,0.001285030273720622,8.114962838590145e-05,,,,,,,,,,,,,,,,,,,,,,,,,,
1634346314.53115988,,,,,,,,,,,,,,,,,,,,,,,,,,0.0,14.989999771118164,-7,-7,2,28.239999771118164,1586.861572265625,0.0
1634346314.53500390,,,,,,,,35200914,0,1493,1900,2000,1497,0,0,0,0,0,0,0,0,0,0,0,0,,,,,,,,
1634346314.76067996,35440,0.0011679630260914564,0.0014941394329071045,-0.12298866361379623,0.0002486931043677032,0.002685779007151723,0.00017327250679954886,,,,,,,,,,,,,,,,,,,,,,,,,,
1634346314.76600385,,,,,,,,,,,,,,,,,,,,,,,,,,0.0,14.989999771118164,-7,-7,4,28.219999313354492,1230.3673095703125,0.0
1634346314.76860404,,,,,,,,35440818,0,1496,1900,2000,1498,0,0,0,0,0,0,0,0,0,0,0,0,,,,,,,,
1634346315.02344799,35700,0.001217857701703906,0.002358681056648493,-0.12300628423690796,0.00029365249793045223,0.0038772146217525005,0.00010629257303662598,,,,,,,,,,,,,,,,,,,,,,,,,,
1634346315.02570391,,,,,,,,,,,,,,,,,,,,,,,,,,0.0,14.989999771118164,-7,-7,6,28.200000762939453,1034.7222900390625,0.0
1634346315.02751184,,,,,,,,35700714,0,1498,1900,2000,1499,0,0,0,0,0,0,0,0,0,0,0,0,,,,,,,,
1634346315.26260400,35940,0.0012658893829211593,0.003662231843918562,-0.12290862202644348,0.0002694199502002448,0.006190893240272999,0.00029715526034124196,,,,,,,,,,,,,,,,,,,,,,,,,,
1634346315.26453590,,,,,,,,,,,,,,,,,,,,,,,,,,0.0,14.989999771118164,-7,-7,10,28.139999389648438,746.6749877929688,0.0
1634346315.26587987,,,,,,,,35940618,0,1498,1900,2000,1500,0,0,0,0,0,0,0,0,0,0,0,0,,,,,,,,
1634346315.52351999,36200,0.0013227063464000821,0.005665275268256664,-0.12273025512695312,0.00034678622614592314,0.00873906072229147,0.00018534401897341013,,,,,,,,,,,,,,,,,,,,,,,,,,
1634346315.52548003,,,,,,,,,,,,,,,,,,,,,,,,,,0.0,14.989999771118164,-7,-7,13,28.09000015258789,599.267578125,0.0
1634346315.52712393,,,,,,,,36200514,0,1499,1900,2000,1500,0,0,0,0,0,0,0,0,0,0,0,0,,,,,,,,
1634346315.75930786,36440,0.0013764577452093363,0.008064339868724346,-0.1225457713007927,0.00031230589956976473,0.010695724748075008,0.0004152392502874136,,,,,,,,,,,,,,,,,,,,,,,,,,
1634346315.76346397,,,,,,,,,,,,,,,,,,,,,,,,,,0.0,14.989999771118164,-7,-7,17,28.020000457763672,392.4141845703125,0.0
1634346315.77307582,,,,,,,,36440418,0,1499,1882,2000,1500,0,0,0,0,0,0,0,0,0,0,0,0,,,,,,,,
1634346316.02241182,36700,0.0023535899817943573,0.26923155784606934,-0.1232428327202797,0.019127782434225082,1.2893534898757935,-0.004385595675557852,,,,,,,,,,,,,,,,,,,,,,,,,,
1634346316.02555203,,,,,,,,,,,,,,,,,,,,,,,,,,0.0,14.989999771118164,-7,-7,21,27.850000381469727,244.33326721191406,0.0
1634346316.02701187,,,,,,,,36700314,0,1496,1503,2000,1499,0,0,0,0,0,0,0,0,0,0,0,0,,,,,,,,
1634346316.26059198,36940,0.0032560124527662992,0.4185878336429596,-0.12046975642442703,-0.005721860099583864,0.0012455867836251855,0.008398173376917839,,,,,,,,,,,,,,,,,,,,,,,,,,
1634346316.26292801,,,,,,,,,,,,,,,,,,,,,,,,,,0.0,14.989999771118164,-6,-6,26,26.0,54.907989501953125,0.0
1634346316.26449203,,,,,,,,36940218,0,1499,1334,2000,1500,0,0,0,0,0,0,0,0,0,0,0,0,,,,,,,,
1634346316.52445984,37200,0.0024789825547486544,0.2986159026622772,-0.11827249825000763,0.011947877705097198,-0.6155804991722107,0.0006383779691532254,,,,,,,,,,,,,,,,,,,,,,,,,,
1634346316.52647591,,,,,,,,,,,,,,,,,,,,,,,,,,0.0,14.989999771118164,-6,-6,29,24.280000686645508,-44.008445739746094,0.0
1634346316.52782798,,,,,,,,37200947,0,1498,1455,2000,1499,0,0,0,0,0,0,0,0,0,0,0,0,,,,,,,,
1634346316.76358390,37440,-0.0034127964172512293,0.2050209939479828,-0.12324445694684982,-0.04255497083067894,-0.12679149210453033,-0.009543498046696186,,,,,,,,,,,,,,,,,,,,,,,,,,
1634346316.76571584,,,,,,,,,,,,,,,,,,,,,,,,,,-0.23000000417232513,14.989999771118164,-7,-7,35,22.270000457763672,-192.77381896972656,0.0
1634346316.76715994,,,,,,,,37440851,0,1500,1548,2000,1500,0,0,0,0,0,0,0,0,0,0,0,0,,,,,,,,
1634346317.02319598,37700,-0.008854703977704048,0.2410149872303009,-0.12197823077440262,0.0008941857959143817,0.2718629240989685,0.000990249216556549,,,,,,,,,,,,,,,,,,,,,,,,,,
1634346317.02537990,,,,,,,,,,,,,,,,,,,,,,,,,,-0.36000001430511475,14.989999771118164,-7,-7,40,21.100000381469727,-290.981689453125,0.0
1634346317.02709603,,,,,,,,37700747,0,1501,1521,2000,1500,0,0,0,0,0,0,0,0,0,0,0,0,,,,,,,,
1634346317.26188397,37940,-0.0056119756773114204,0.29731813073158264,-0.1214120090007782,0.008004306815564632,0.14790135622024536,-0.005126050673425198,,,,,,,,,,,,,,,,,,,,,,,,,,
1634346317.26401591,,,,,,,,,,,,,,,,,,,,,,,,,,-0.3700000047683716,14.989999771118164,-7,-7,46,18.860000610351562,-426.2765808105469,0.0
1634346317.26542783,,,,,,,,37940651,0,1500,1473,2000,1500,0,0,0,0,0,0,0,0,0,0,0,0,,,,,,,,
1634346317.52133989,38200,-0.00669108796864748,0.305522084236145,-0.12279152125120163,-0.0007978535140864551,-0.02018817886710167,0.011652158573269844,,,,,,,,,,,,,,,,,,,,,,,,,,
1634346317.52342796,,,,,,,,,,,,,,,,,,,,,,,,,,-0.20999999344348907,14.989999771118164,-7,-7,51,17.09000015258789,-494.3485107421875,0.0
1634346317.52478790,,,,,,,,38200547,0,1501,1463,2000,1500,0,0,0,0,0,0,0,0,0,0,0,0,,,,,,,,
1634346317.76335597,38440,-0.007213482167571783,0.2894490361213684,-0.12431353330612183,0.010121900588274002,-0.04976680129766464,0.010348355397582054,,,,,,,,,,,,,,,,,,,,,,,,,,
1634346317.76543188,,,,,,,,,,,,,,,,,,,,,,,,,,-0.14000000059604645,14.989999771118164,-7,-7,57,14.390000343322754,-577.8499755859375,0.0
1634346317.76696801,,,,,,,,38440451,0,1501,1476,2000,1500,0,0,0,0,0,0,0,0,0,0,0,0,,,,,,,,
1634346318.02004004,38700,-0.006185766775161028,0.28028032183647156,-0.12427899986505508,0.02971193566918373,-0.01198500208556652,0.008938943035900593,,,,,,,,,,,,,,,,,,,,,,,,,,
1634346318.02646804,,,,,,,,,,,,,,,,,,,,,,,,,,-0.14000000059604645,14.989999771118164,-7,-7,62,12.619999885559082,-626.7929077148438,0.0
1634346318.02889585,,,,,,,,38700347,0,1500,1485,1850,1500,0,0,0,0,0,0,0,0,0,0,0,0,,,,,,,,
1634346318.26155186,38940,-0.0032141883857548237,0.283942312002182,-0.12592093646526337,0.0009487448260188103,0.048494573682546616,-6.531560211442411e-05,,,,,,,,,,,,,,,,,,,,,,,,,,
1634346318.26359582,,,,,,,,,,,,,,,,,,,,,,,,,,-0.03999999910593033,14.989999771118164,-7,-7,69,9.920000076293945,-637.1988525390625,0.0
1634346318.26509595,,,,,,,,38940251,0,1500,1483,1620,1500,0,0,0,0,0,0,0,0,0,0,0,0,,,,,,,,
1634346318.52097583,39200,-0.0039686355739831924,0.2918251156806946,-0.12711237370967865,-0.006644109264016151,0.028695369139313698,0.0017639338038861752,,,,,,,,,,,,,,,,,,,,,,,,,,
1634346318.52295184,,,,,,,,,,,,,,,,,,,,,,,,,,0.019999999552965164,14.989999771118164,-7,-7,74,8.109999656677246,-608.3519287109375,0.0
1634346318.52435589,,,,,,,,39200147,0,1502,1477,1680,1501,0,0,0,0,0,0,0,0,0,0,0,0,,,,,,,,
1634346318.76143193,39440,0.00016849562234710902,0.2914239466190338,-0.12653115391731262,0.029905056580901146,-0.008580991998314857,-0.002948383567854762,,,,,,,,,,,,,,,,,,,,,,,,,,
1634346318.76371598,,,,,,,,,,,,,,,,,,,,,,,,,,0.0,15.0,-7,-7,81,5.389999866485596,-532.367919921875,0.0
1634346318.76512790,,,,,,,,39440884,0,1500,1476,1720,1500,0,0,0,0,0,0,0,0,0,0,0,0,,,,,,,,
1634346319.02764392,39700,0.002869093557819724,0.2874239683151245,-0.12626223266124725,0.0067290798760950565,-0.006255964748561382,0.011729859746992588,,,,,,,,,,,,,,,,,,,,,,,,,,
1634346319.03086782,,,,,,,,,,,,,,,,,,,,,,,,,,0.05999999865889549,14.989999771118164,-7,-7,85,3.609999895095825,-483.9880065917969,0.0
1634346319.03224802,,,,,,,,39700780,0,1500,1479,1720,1500,0,0,0,0,0,0,0,0,0,0,0,0,,,,,,,,
1634346319.26430392,39940,0.004286065697669983,0.28406277298927307,-0.12539437413215637,-0.004716871771961451,-0.013416718691587448,0.0029240816365927458,,,,,,,,,,,,,,,,,,,,,,,,,,
1634346319.26645184,,,,,,,,,,,,,,,,,,,,,,,,,,-0.07000000029802322,14.989999771118164,-7,-7,92,0.9900000095367432,-410.6021728515625,0.0
1634346319.26782799,,,,,,,,39940684,0,1498,1482,1700,1499,0,0,0,0,0,0,0,0,0,0,0,0,,,,,,,,
1634346319.52072382,40200,-0.00034124183002859354,0.27913928031921387,-0.12472134083509445,-0.00929836556315422,-0.03830897435545921,-0.0017898168880492449,,,,,,,,,,,,,,,,,,,,,,,,,,
1634346319.52276397,,,,,,,,,,,,,,,,,,,,,,,,,,-0.10999999940395355,3.3399999141693115,-7,-7,449,0.0,-367.42669677734375,0.0
1634346319.52410793,,,,,,,,40200580,0,1500,1360,1700,1500,0,0,0,0,0,0,0,0,0,0,0,0,,,,,,,,
1634346319.76233602,40440,-0.07022284716367722,0.1842629462480545,-0.13786545395851135,-0.8161928653717041,-0.6596843600273132,-0.14886851608753204,,,,,,,,,,,,,,,,,,,,,,,,,,
1634346319.76481581,,,,,,,,,,,,,,,,,,,,,,,,,,-39.5099983215332,2.3399999141693115,-43,-43,444,-1.6200000047683716,-302.55908203125,-0.0
1634346319.76618385,,,,,,,,40440484,0,1344,1378,1680,1422,0,0,0,0,0,0,0,0,0,0,0,0,,,,,,,,
1634346320.01970387,40700,-0.4246107339859009,0.018357953056693077,-0.12895339727401733,-1.561905026435852,-0.4474417567253113,-0.042298831045627594,,,,,,,,,,,,,,,,,,,,,,,,,,
1634346320.02189183,,,,,,,,,,,,,,,,,,,,,,,,,,-41.310001373291016,2.0199999809265137,-44,-44,440,-2.200000047683716,-272.73883056640625,-0.0
1634346320.02327585,,,,,,,,40700380,0,1409,1517,1660,1455,0,0,0,0,0,0,0,0,0,0,0,0,,,,,,,,
1634346320.26417589,40940,-0.7317520380020142,-0.0026330261025577784,-0.12696242332458496,-0.869531512260437,0.20801982283592224,-0.028788886964321136,,,,,,,,,,,,,,,,,,,,,,,,,,
1634346320.26623583,,,,,,,,,,,,,,,,,,,,,,,,,,-41.06999969482422,1.100000023841858,-44,-44,435,-2.200000047683716,-254.8814697265625,-0.0
1634346320.26765203,,,,,,,,40940284,0,1529,1561,1740,1514,0,0,0,0,0,0,0,0,0,0,0,0,,,,,,,,
1634346320.51952791,41200,-0.7905504703521729,0.06015128269791603,-0.21728907525539398,0.25929197669029236,0.4865991771221161,-0.12260516732931137,,,,,,,,,,,,,,,,,,,,,,,,,,
1634346320.52155185,,,,,,,,,,,,,,,,,,,,,,,,,,-38.29999923706055,0.9599999785423279,-45,-45,431,-2.0,-262.396240234375,-0.0
1634346320.52296400,,,,,,,,41200180,0,1546,1521,1830,1523,0,0,0,0,0,0,0,0,0,0,0,0,,,,,,,,
1634346320.76082802,41440,-0.6873083710670471,0.09754560887813568,-0.3101097345352173,0.5498889088630676,0.2374725490808487,-0.21221457421779633,,,,,,,,,,,,,,,,,,,,,,,,,,
1634346320.76326394,,,,,,,,,,,,,,,,,,,,,,,,,,-32.5,0.9900000095367432,-45,-45,425,-1.8600000143051147,-280.3106384277344,-0.0
1634346320.76462388,,,,,,,,41440917,0,1528,1476,1770,1514,0,0,0,0,0,0,0,0,0,0,0,0,,,,,,,,
1634346321.02431202,41700,-0.5676446557044983,0.08662296086549759,-0.3691171407699585,0.3956678509712219,0.007015484385192394,-0.2023804485797882,,,,,,,,,,,,,,,,,,,,,,,,,,
1634346321.02655196,,,,,,,,,,,,,,,,,,,,,,,,,,-30.309999465942383,1.0099999904632568,-45,-45,420,-1.899999976158142,-293.9767761230469,-0.0
1634346321.02792788,,,,,,,,41700813,0,1505,1469,1710,1502,0,0,0,0,0,0,0,0,0,0,0,0,,,,,,,,
1634346321.25989199,41940,-0.5084629058837891,0.061408769339323044,-0.40582770109176636,0.14813175797462463,-0.013290531001985073,-0.1696983277797699,,,,,,,,,,,,,,,,,,,,,,,,,,
1634346321.26179194,,,,,,,,,,,,,,,,,,,,,,,,,,-28.889999389648438,1.090000033378601,-46,-46,413,-1.8799999952316284,-297.0708923339844,-0.0
1634346321.26310802,,,,,,,,41940717,0,1496,1484,1680,1498,0,0,0,0,0,0,0,0,0,0,0,0,,,,,,,,
1634346321.52171993,42200,-0.49306267499923706,0.0496964305639267,-0.4465171992778778,0.018784914165735245,0.07205178588628769,-0.1478448063135147,,,,,,,,,,,,,,,,,,,,,,,,,,
1634346321.52391601,,,,,,,,,,,,,,,,,,,,,,,,,,-27.780000686645508,1.0700000524520874,-46,-46,409,-1.7699999809265137,-282.60650634765625,-0.0
1634346321.52528000,,,,,,,,42200613,0,1502,1492,1680,1500,0,0,0,0,0,0,0,0,0,0,0,0,,,,,,,,
1634346321.76240802,42440,-0.4847829043865204,0.053789280354976654,-0.485012024641037,0.09138623625040054,0.10087446868419647,-0.1223054900765419,,,,,,,,,,,,,,,,,,,,,,,,,,
1634346321.76457191,,,,,,,,,,,,,,,,,,,,,,,,,,-25.079999923706055,1.0,-46,-46,402,-1.5499999523162842,-263.84906005859375,-0.0
1634346321.76595592,,,,,,,,42440517,0,1512,1489,1690,1506,0,0,0,0,0,0,0,0,0,0,0,0,,,,,,,,
1634346322.02000403,42700,-0.44850054383277893,0.06035325676202774,-0.5232037901878357,0.18576110899448395,0.10418066382408142,-0.1325072944164276,,,,,,,,,,,,,,,,,,,,,,,,,,
1634346322.02214003,,,,,,,,,,,,,,,,,,,,,,,,,,-23.1200008392334,3.8299999237060547,-47,-47,397,-1.4199999570846558,-257.0531921386719,-0.0
1634346322.02452397,,,,,,,,42700413,0,1513,1513,1520,1506,0,0,0,0,0,0,0,0,0,0,0,0,,,,,,,,
1634346322.26118398,42940,-0.4030633866786957,0.08391569554805756,-0.5667192339897156,0.21034377813339233,0.18971574306488037,-0.13368338346481323,,,,,,,,,,,,,,,,,,,,,,,,,,
1634346322.26327586,,,,,,,,,,,,,,,,,,,,,,,,,,-19.6200008392334,3.4700000286102295,-47,-47,390,-1.2699999809265137,-239.280517578125,-0.0
1634346322.26462793,,,,,,,,42940317,0,1513,1497,1480,1506,0,0,0,0,0,0,0,0,0,0,0,0,,,,,,,,
1634346322.51957583,43200,-0.3539030849933624,0.10428760945796967,-0.6086205244064331,0.21451784670352936,0.06301619112491608,-0.10934799164533615,,,,,,,,,,,,,,,,,,,,,,,,,,
1634346322.52162385,,,,,,,,,,,,,,,,,,,,,,,,,,-16.93000030517578,2.990000009536743,-47,-47,386,-1.2899999618530273,-202.9296875,-0.0
1634346322.52318788,,,,,,,,43200213,0,1518,1470,1520,1509,0,0,0,0,0,0,0,0,0,0,0,0,,,,,,,,
1634346322.76018786,43440,-0.29812386631965637,0.09064562618732452,-0.6291138529777527,0.23767584562301636,-0.07137744128704071,-0.11052980273962021,,,,,,,,,,,,,,,,,,,,,,,,,,
1634346322.76238394,,,,,,,,,,,,,,,,,,,,,,,,,,-14.619999885559082,2.4000000953674316,-47,-47,379,-1.409999966621399,-141.180419921875,-0.0
1634346322.76377583,,,,,,,,43440950,0,1509,1468,1540,1504,0,0,0,0,0,0,0,0,0,0,0,0,,,,,,,,
1634346323.02325988,43700,-0.2519400119781494,0.06237749010324478,-0.6463713645935059,0.13844124972820282,-0.07087630033493042,-0.09814247488975525,,,,,,,,,,,,,,,,,,,,,,,,,,
1634346323.02696800,,,,,,,,,,,,,,,,,,,,,,,,,,-13.979999542236328,2.1500000953674316,-47,-47,374,-1.409999966621399,-112.56656646728516,-0.0
1634346323.02977586,,,,,,,,43700846,0,1499,1483,1530,1500,0,0,0,0,0,0,0,0,0,0,0,0,,,,,,,,
1634346323.26492786,43940,-0.23603129386901855,0.046632423996925354,-0.6650434732437134,0.03585367649793625,-0.016540464013814926,-0.0822281539440155,,,,,,,,,,,,,,,,,,,,,,,,,,
1634346323.26694798,,,,,,,,,,,,,,,,,,,,,,,,,,-12.890000343322754,1.7999999523162842,-48,-48,368,-1.2799999713897705,-78.13282012939453,-0.0
1634346323.26823187,,,,,,,,43940750,0,1501,1492,1540,1500,0,0,0,0,0,0,0,0,0,0,0,0,,,,,,,,
1634346323.52256799,44200,-0.22999010980129242,0.04209073260426521,-0.6832507252693176,0.05261901393532753,0.019320974126458168,-0.07620605081319809,,,,,,,,,,,,,,,,,,,,,,,,,,
1634346323.52470398,,,,,,,,,,,,,,,,,,,,,,,,,,-11.850000381469727,1.600000023841858,-48,-48,363,-1.1299999952316284,-59.889793395996094,-0.0
1634346323.52608395,,,,,,,,44200646,0,1508,1492,1540,1504,0,0,0,0,0,0,0,0,0,0,0,0,,,,,,,,
1634346323.76062393,44440,-0.2123013585805893,0.04512717202305794,-0.69840008020401,0.10858353227376938,0.017995228990912437,-0.052811019122600555,,,,,,,,,,,,,,,,,,,,,,,,,,
1634346323.76682782,,,,,,,,,,,,,,,,,,,,,,,,,,-10.15999984741211,1.2999999523162842,-48,-48,356,-0.8999999761581421,-36.60774230957031,-0.0
1634346323.76937199,,,,,,,,44440550,0,1510,1486,1560,1505,0,0,0,0,0,0,0,0,0,0,0,0,,,,,,,,
