timestamp,ATTITUDE.time_boot_ms,ATTITUDE.roll,ATTITUDE.pitch,ATTITUDE.yaw,ATTITUDE.rollspeed,ATTITUDE.pitchspeed,ATTITUDE.yawspeed,SERVO_OUTPUT_RAW.time_usec,SERVO_OUTPUT_RAW.port,SERVO_OUTPUT_RAW.servo1_raw,SERVO_OUTPUT_RAW.servo2_raw,SERVO_OUTPUT_RAW.servo3_raw,SERVO_OUTPUT_RAW.servo4_raw,SERVO_OUTPUT_RAW.servo5_raw,SERVO_OUTPUT_RAW.servo6_raw,SERVO_OUTPUT_RAW.servo7_raw,SERVO_OUTPUT_RAW.servo8_raw,SERVO_OUTPUT_RAW.servo9_raw,SERVO_OUTPUT_RAW.servo10_raw,SERVO_OUTPUT_RAW.servo11_raw,SERVO_OUTPUT_RAW.servo12_raw,SERVO_OUTPUT_RAW.servo13_raw,SERVO_OUTPUT_RAW.servo14_raw,SERVO_OUTPUT_RAW.servo15_raw,SERVO_OUTPUT_RAW.servo16_raw,NAV_CONTROLLER_OUTPUT.nav_roll,NAV_CONTROLLER_OUTPUT.nav_pitch,NAV_CONTROLLER_OUTPUT.nav_bearing,NAV_CONTROLLER_OUTPUT.target_bearing,NAV_CONTROLLER_OUTPUT.wp_dist,NAV_CONTROLLER_OUTPUT.alt_error,NAV_CONTROLLER_OUTPUT.aspd_error,NAV_CONTROLLER_OUTPUT.xtrack_error
1633182954.13754797,,,,,,,,200753,0,1500,1500,1000,1500,1000,1000,1000,1000,0,0,0,0,0,0,0,0,,,,,,,,
1633182954.15585995,,,,,,,,221578,0,1500,1500,1000,1500,1000,1000,1000,1000,0,0,0,0,0,0,0,0,,,,,,,,
1633182954.15611601,,,,,,,,242403,0,1500,1500,1000,1500,1000,1000,1000,1000,0,0,0,0,0,0,0,0,,,,,,,,
1633182954.15630388,,,,,,,,263228,0,1500,1500,1000,1500,1000,1000,1000,1000,0,0,0,0,0,0,0,0,,,,,,,,
1633182954.15648389,,,,,,,,284053,0,1500,1500,1000,1500,1000,1000,1000,1000,0,0,0,0,0,0,0,0,,,,,,,,
1633182954.15666389,,,,,,,,304878,0,1500,1500,1000,1500,1000,1000,1000,1000,0,0,0,0,0,0,0,0,,,,,,,,
1633182954.16041183,,,,,,,,325703,0,1500,1500,1000,1500,1000,1000,1000,1000,0,0,0,0,0,0,0,0,,,,,,,,
1633182954.16670394,,,,,,,,346528,0,1500,1500,1000,1500,1000,1000,1000,1000,0,0,0,0,0,0,0,0,,,,,,,,
1633182954.16698003,,,,,,,,367353,0,1500,1500,1000,1500,1000,1000,1000,1000,0,0,0,0,0,0,0,0,,,,,,,,
1633182954.16717196,,,,,,,,388178,0,1500,1500,1000,1500,1000,1000,1000,1000,0,0,0,0,0,0,0,0,,,,,,,,
1633182954.16746402,,,,,,,,409003,0,1500,1500,1000,1500,1000,1000,1000,1000,0,0,0,0,0,0,0,0,,,,,,,,
1633182954.16777992,,,,,,,,429828,0,1500,1500,1000,1500,1000,1000,1000,1000,0,0,0,0,0,0,0,0,,,,,,,,
1633182954.16796398,,,,,,,,450653,0,1500,1500,1000,1500,1000,1000,1000,1000,0,0,0,0,0,0,0,0,,,,,,,,
1633182954.16813993,,,,,,,,471478,0,1500,1500,1000,1500,1000,1000,1000,1000,0,0,0,0,0,0,0,0,,,,,,,,
1633182954.16831589,,,,,,,,492303,0,1500,1500,1000,1500,1000,1000,1000,1000,0,0,0,0,0,0,0,0,,,,,,,,
1633182954.16848803,,,,,,,,513128,0,1500,1500,1000,1500,1000,1000,1000,1000,0,0,0,0,0,0,0,0,,,,,,,,
1633182954.18484402,,,,,,,,533953,0,1500,1500,1000,1500,1000,1000,1000,1000,0,0,0,0,0,0,0,0,,,,,,,,
1633182954.18506384,,,,,,,,554778,0,1500,1500,1000,1500,1000,1000,1000,1000,0,0,0,0,0,0,0,0,,,,,,,,
1633182954.18529582,,,,,,,,575603,0,1500,1500,1000,1500,1000,1000,1000,1000,0,0,0,0,0,0,0,0,,,,,,,,
1633182954.18548393,,,,,,,,596428,0,1500,1500,1000,1500,1000,1000,1000,1000,0,0,0,0,0,0,0,0,,,,,,,,
1633182954.18565989,,,,,,,,617253,0,1500,1500,1000,1500,1000,1000,1000,1000,0,0,0,0,0,0,0,0,,,,,,,,
1633182954.18583584,,,,,,,,638078,0,1500,1500,1000,1500,1000,1000,1000,1000,0,0,0,0,0,0,0,0,,,,,,,,
1633182954.18601203,,,,,,,,658903,0,1500,1500,1000,1500,1000,1000,1000,1000,0,0,0,0,0,0,0,0,,,,,,,,
1633182954.19512796,,,,,,,,679728,0,1500,1500,1000,1500,1000,1000,1000,1000,0,0,0,0,0,0,0,0,,,,,,,,
1633182954.19534802,,,,,,,,700553,0,1500,1500,1000,1500,1000,1000,1000,1000,0,0,0,0,0,0,0,0,,,,,,,,
1633182954.19553185,,,,,,,,721378,0,1500,1500,1000,1500,1000,1000,1000,1000,0,0,0,0,0,0,0,0,,,,,,,,
1633182954.19571185,,,,,,,,742203,0,1500,1500,1000,1500,1000,1000,1000,1000,0,0,0,0,0,0,0,0,,,,,,,,
1633182954.20179987,,,,,,,,763028,0,1500,1500,1000,1500,1000,1000,1000,1000,0,0,0,0,0,0,0,0,,,,,,,,
1633182954.20202398,,,,,,,,783853,0,1500,1500,1000,1500,1000,1000,1000,1000,0,0,0,0,0,0,0,0,,,,,,,,
1633182954.20220804,,,,,,,,804678,0,1500,1500,1000,1500,1000,1000,1000,1000,0,0,0,0,0,0,0,0,,,,,,,,
1633182954.20238781,,,,,,,,825503,0,1500,1500,1000,1500,1000,1000,1000,1000,0,0,0,0,0,0,0,0,,,,,,,,
1633182954.21153188,,,,,,,,846328,0,1500,1500,1000,1500,1000,1000,1000,1000,0,0,0,0,0,0,0,0,,,,,,,,
1633182954.21190381,,,,,,,,867153,0,1500,1500,1000,1500,1000,1000,1000,1000,0,0,0,0,0,0,0,0,,,,,,,,
1633182954.21219182,,,,,,,,887978,0,1500,1500,1000,1500,1000,1000,1000,1000,0,0,0,0,0,0,0,0,,,,,,,,
1633182954.21249986,,,,,,,,908803,0,1500,1500,1000,1500,1000,1000,1000,1000,0,0,0,0,0,0,0,0,,,,,,,,
1633182954.21279597,,,,,,,,929628,0,1500,1500,1000,1500,1000,1000,1000,1000,0,0,0,0,0,0,0,0,,,,,,,,
1633182954.21307182,,,,,,,,950453,0,1500,1500,1000,1500,1000,1000,1000,1000,0,0,0,0,0,0,0,0,,,,,,,,
1633182954.21334791,,,,,,,,971278,0,1500,1500,1000,1500,1000,1000,1000,1000,0,0,0,0,0,0,0,0,,,,,,,,
1633182954.22212791,,,,,,,,992103,0,1500,1500,1000,1500,1000,1000,1000,1000,0,0,0,0,0,0,0,0,,,,,,,,
1633182954.23017597,,,,,,,,1012928,0,1500,1500,1000,1500,1000,1000,1000,1000,0,0,0,0,0,0,0,0,,,,,,,,
1633182954.23066783,,,,,,,,1033753,0,1500,1500,1000,1500,1000,1000,1000,1000,0,0,0,0,0,0,0,0,,,,,,,,
1633182954.23614788,,,,,,,,1054578,0,1500,1500,1000,1500,1000,1000,1000,1000,0,0,0,0,0,0,0,0,,,,,,,,
1633182954.23634791,,,,,,,,1075403,0,1500,1500,1000,1500,1000,1000,1000,1000,0,0,0,0,0,0,0,0,,,,,,,,
1633182954.23653197,,,,,,,,1096228,0,1500,1500,1000,1500,1000,1000,1000,1000,0,0,0,0,0,0,0,0,,,,,,,,
1633182954.23671198,,,,,,,,1117053,0,1500,1500,1000,1500,1000,1000,1000,1000,0,0,0,0,0,0,0,0,,,,,,,,
1633182954.24283195,,,,,,,,1137878,0,1500,1500,1000,1500,1000,1000,1000,1000,0,0,0,0,0,0,0,0,,,,,,,,
1633182954.24304795,,,,,,,,1158703,0,1500,1500,1000,1500,1000,1000,1000,1000,0,0,0,0,0,0,0,0,,,,,,,,
1633182954.24322796,,,,,,,,1179528,0,1500,1500,1000,1500,1000,1000,1000,1000,0,0,0,0,0,0,0,0,,,,,,,,
1633182954.24340796,,,,,,,,1200353,0,1500,1500,1000,1500,1000,1000,1000,1000,0,0,0,0,0,0,0,0,,,,,,,,
1633182954.24357986,,,,,,,,1221178,0,1500,1500,1000,1500,1000,1000,1000,1000,0,0,0,0,0,0,0,0,,,,,,,,
1633182954.24384403,,,,,,,,1242003,0,1500,1500,1000,1500,1000,1000,1000,1000,0,0,0,0,0,0,0,0,,,,,,,,
1633182954.24402404,,,,,,,,1262828,0,1500,1500,1000,1500,1000,1000,1000,1000,0,0,0,0,0,0,0,0,,,,,,,,
1633182954.24419999,,,,,,,,1283653,0,1500,1500,1000,1500,1000,1000,1000,1000,0,0,0,0,0,0,0,0,,,,,,,,
1633182954.24437189,,,,,,,,1304478,0,1500,1500,1000,1500,1000,1000,1000,1000,0,0,0,0,0,0,0,0,,,,,,,,
1633182954.24454784,,,,,,,,1325303,0,1500,1500,1000,1500,1000,1000,1000,1000,0,0,0,0,0,0,0,0,,,,,,,,
1633182954.24956393,,,,,,,,1346128,0,1500,1500,1000,1500,1000,1000,1000,1000,0,0,0,0,0,0,0,0,,,,,,,,
1633182954.24995995,,,,,,,,1366953,0,1500,1500,1000,1500,1000,1000,1000,1000,0,0,0,0,0,0,0,0,,,,,,,,
1633182954.25015593,,,,,,,,1387778,0,1500,1500,1000,1500,1000,1000,1000,1000,0,0,0,0,0,0,0,0,,,,,,,,
1633182954.25033593,,,,,,,,1408603,0,1500,1500,1000,1500,1000,1000,1000,1000,0,0,0,0,0,0,0,0,,,,,,,,
1633182954.25056386,,,,,,,,1429428,0,1500,1500,1000,1500,1000,1000,1000,1000,0,0,0,0,0,0,0,0,,,,,,,,
1633182954.25077581,,,,,,,,1450253,0,1500,1500,1000,1500,1000,1000,1000,1000,0,0,0,0,0,0,0,0,,,,,,,,
1633182954.25095987,,,,,,,,1471078,0,1500,1500,1000,1500,1000,1000,1000,1000,0,0,0,0,0,0,0,0,,,,,,,,
1633182954.25113583,,,,,,,,1491903,0,1500,1500,1000,1500,1000,1000,1000,1000,0,0,0,0,0,0,0,0,,,,,,,,
1633182954.25130796,,,,,,,,1512728,0,1500,1500,1000,1500,1000,1000,1000,1000,0,0,0,0,0,0,0,0,,,,,,,,
1633182954.25347185,,,,,,,,1533553,0,1500,1500,1000,1500,1000,1000,1000,1000,0,0,0,0,0,0,0,0,,,,,,,,
1633182954.25367188,,,,,,,,1554378,0,1500,1500,1000,1500,1000,1000,1000,1000,0,0,0,0,0,0,0,0,,,,,,,,
1633182954.25385594,,,,,,,,1575203,0,1500,1500,1000,1500,1000,1000,1000,1000,0,0,0,0,0,0,0,0,,,,,,,,
1633182954.25403190,,,,,,,,1596028,0,1500,1500,1000,1500,1000,1000,1000,1000,0,0,0,0,0,0,0,0,,,,,,,,
1633182954.25427985,,,,,,,,1616853,0,1500,1500,1000,1500,1000,1000,1000,1000,0,0,0,0,0,0,0,0,,,,,,,,
1633182954.25655985,,,,,,,,1637678,0,1500,1500,1000,1500,1000,1000,1000,1000,0,0,0,0,0,0,0,0,,,,,,,,
1633182954.25677204,,,,,,,,1658503,0,1500,1500,1000,1500,1000,1000,1000,1000,0,0,0,0,0,0,0,0,,,,,,,,
1633182954.25695586,,,,,,,,1679328,0,1500,1500,1000,1500,1000,1000,1000,1000,0,0,0,0,0,0,0,0,,,,,,,,
1633182954.25713181,,,,,,,,1700153,0,1500,1500,1000,1500,1000,1000,1000,1000,0,0,0,0,0,0,0,0,,,,,,,,
1633182954.26446795,1800,-0.00037689044256694615,8.424223779002205e-05,8.287303899123799e-06,-2.237020271422807e-05,-8.291758422274143e-05,5.721473280573264e-05,,,,,,,,,,,,,,,,,,,,,,,,,,
1633182954.27135181,,,,,,,,1800946,0,1500,1500,1000,1500,0,0,0,0,0,0,0,0,0,0,0,0,,,,,,,,
1633182954.28580403,2040,-0.0001827749947551638,-0.0009408541955053806,-0.34230899810791016,1.5588053429382853e-05,0.00010051373828900978,9.353439236292616e-05,,,,,,,,,,,,,,,,,,,,,,,,,,
1633182954.28921604,,,,,,,,2040850,0,1500,1500,1000,1500,0,0,0,0,0,0,0,0,0,0,0,0,,,,,,,,
1633182955.09588003,3040,0.000247656338615343,-0.0008361221407540143,-0.3416597843170166,0.0001752457901602611,0.00014571224164683372,8.993248047772795e-05,,,,,,,,,,,,,,,,,,,,,,,,,,
1633182955.09769988,,,,,,,,3040450,0,1500,1500,1000,1500,0,0,0,0,0,0,0,0,0,0,0,0,,,,,,,,
1633182956.01508403,3960,0.00011831620940938592,0.0003957814769819379,-0.3430589735507965,5.459727981360629e-05,-5.0273312808712944e-05,3.689774530357681e-05,,,,,,,,,,,,,,,,,,,,,,,,,,
1633182956.01719594,,,,,,,,3960915,0,1500,1500,1000,1500,0,0,0,0,0,0,0,0,0,0,0,0,,,,,,,,
1633182956.27096391,4220,0.00012324748968239874,0.00016506851534359157,-0.3431829810142517,0.00013906179810874164,-4.6488523366861045e-05,-2.4012588255573064e-05,,,,,,,,,,,,,,,,,,,,,,,,,,
1633182956.27334404,,,,,,,,4220811,0,1500,1500,1000,1500,0,0,0,0,0,0,0,0,0,0,0,0,,,,,,,,
1633182956.51171589,4460,0.00013582594692707062,-1.564813828736078e-05,-0.343219131231308,2.9245196856209077e-05,-2.33559276239248e-05,2.5861234462354332e-05,,,,,,,,,,,,,,,,,,,,,,,,,,
1633182956.51387596,,,,,,,,4460715,0,1500,1500,1000,1500,0,0,0,0,0,0,0,0,0,0,0,0,,,,,,,,
1633182956.77580404,4720,0.00015452367370016873,-0.00013141700765118003,-0.3432135581970215,-7.60647537845216e-07,0.00015544726920779794,0.0001669857301749289,,,,,,,,,,,,,,,,,,,,,,,,,,
1633182956.77905989,,,,,,,,4720611,0,1500,1500,1000,1500,0,0,0,0,0,0,0,0,0,0,0,0,,,,,,,,
1633182957.01435184,4960,0.00016668409807607532,-0.00016367444186471403,-0.3431937098503113,0.00012218109623063356,0.00020815475727431476,9.435166430193931e-05,,,,,,,,,,,,,,,,,,,,,,,,,,
1633182957.01671600,,,,,,,,4960515,0,1500,1500,1000,1500,0,0,0,0,0,0,0,0,0,0,0,0,,,,,,,,
1633182957.27136803,5220,0.000171003513969481,-0.00015378708485513926,-0.3431902229785919,2.6453015379956923e-05,2.204304291808512e-05,-3.760460822377354e-05,,,,,,,,,,,,,,,,,,,,,,,,,,
1633182957.27365994,,,,,,,,5220411,0,1500,1500,1000,1500,0,0,0,0,0,0,0,0,0,0,0,0,,,,,,,,
1633182957.51217604,5460,0.00015538162551820278,-0.00011941499542444944,-0.3431905508041382,0.00026321050245314837,4.9031481466954574e-05,0.00024631028645671904,,,,,,,,,,,,,,,,,,,,,,,,,,
1633182957.51443195,,,,,,,,5460315,0,1500,1500,1000,1500,0,0,0,0,0,0,0,0,0,0,0,0,,,,,,,,
1633182957.77528000,5720,0.00014786665269639343,-8.45316462800838e-05,-0.3431839346885681,9.091823449125513e-05,6.337656668620184e-05,-4.987783540855162e-06,,,,,,,,,,,,,,,,,,,,,,,,,,
1633182957.77885604,,,,,,,,5720211,0,1500,1500,1000,1500,0,0,0,0,0,0,0,0,0,0,0,0,,,,,,,,
1633182958.01528382,5960,0.00012561999028548598,-5.196853817324154e-05,-0.34318414330482483,6.764495628885925e-05,0.00017662935715634376,-8.881468602339737e-06,,,,,,,,,,,,,,,,,,,,,,,,,,
1633182958.01750398,,,,,,,,5960948,0,1500,1500,1000,1500,0,0,0,0,0,0,0,0,0,0,0,0,,,,,,,,
1633182958.27603984,6220,0.00013038412726018578,-2.8517020837171003e-05,-0.3431813418865204,-2.081440470647067e-05,0.00010039158951258287,0.00010429800749989226,,,,,,,,,,,,,,,,,,,,,,,,,,
1633182958.27839184,,,,,,,,6220844,0,1500,1500,1000,1500,0,0,0,0,0,0,0,0,0,0,0,0,,,,,,,,
1633182958.51545596,6460,0.0001729277428239584,-2.0025661797262728e-05,-0.34319570660591125,0.00012070867524016649,0.00017288743401877582,0.0001044969612848945,,,,,,,,,,,,,,,,,,,,,,,,,,
1633182958.52033997,,,,,,,,6460748,0,1500,1500,1000,1500,0,0,0,0,0,0,0,0,0,0,0,0,,,,,,,,
1633182958.77440381,6720,0.00021025286696385592,-1.4913050108589232e-05,-0.3432285189628601,8.198287105187774e-06,0.00012340159446466714,3.827989348792471e-05,,,,,,,,,,,,,,,,,,,,,,,,,,
1633182958.77742791,,,,,,,,6720644,0,1500,1500,1000,1500,0,0,0,0,0,0,0,0,0,0,0,0,,,,,,,,
1633182959.01559591,6960,0.00023171977954916656,3.0006631277501583e-06,-0.3432725965976715,1.557466748636216e-05,-3.612998261814937e-05,4.7290814109146595e-05,,,,,,,,,,,,,,,,,,,,,,,,,,
1633182959.01799989,,,,,,,,6960548,0,1500,1500,1000,1500,0,0,0,0,0,0,0,0,0,0,0,0,,,,,,,,
1633182959.27261591,7220,0.00022119167260825634,-9.58840359999158e-07,-0.3433166444301605,6.402227882063016e-05,0.00010423074854770675,4.04331658501178e-05,,,,,,,,,,,,,,,,,,,,,,,,,,
1633182959.27489996,,,,,,,,7220444,0,1500,1500,1000,1500,0,0,0,0,0,0,0,0,0,0,0,0,,,,,,,,
1633182959.51307988,7460,0.00023242045426741242,3.341703268233687e-05,-0.34334737062454224,0.000130683823954314,0.00015510474622715265,0.00011731134873116389,,,,,,,,,,,,,,,,,,,,,,,,,,
1633182959.51541185,,,,,,,,7460348,0,1500,1500,1000,1500,0,0,0,0,0,0,0,0,0,0,0,0,,,,,,,,
1633182959.77147603,7720,0.00021423866564873606,6.892011697345879e-06,-0.3433762490749359,0.00014612705854233354,-5.1034974603680894e-05,0.0001485685643274337,,,,,,,,,,,,,,,,,,,,,,,,,,
1633182959.77373195,,,,,,,,7720244,0,1500,1500,1000,1500,0,0,0,0,0,0,0,0,0,0,0,0,,,,,,,,
1633182960.01124001,7960,0.00019799586152657866,-1.041789073497057e-05,-0.3433704376220703,6.274814950302243e-05,0.0002445135614834726,0.00016501336358487606,,,,,,,,,,,,,,,,,,,,,,,,,,
1633182960.01381588,,,,,,,,7960148,0,1500,1500,1000,1500,0,0,0,0,0,0,0,0,0,0,0,0,,,,,,,,
1633182960.27304792,8220,0.0001756689016474411,-1.5669525964767672e-05,-0.3136546015739441,-9.185285307466984e-06,0.00021480068971868604,0.00025826736236922443,,,,,,,,,,,,,,,,,,,,,,,,,,
1633182960.27595997,,,,,,,,8220877,0,1500,1500,1000,1500,0,0,0,0,0,0,0,0,0,0,0,0,,,,,,,,
1633182960.51379585,8460,0.00018594696302898228,-1.5018420526757836e-05,-0.25750112533569336,0.0002755549503490329,0.00013481485075317323,0.00018831933266483247,,,,,,,,,,,,,,,,,,,,,,,,,,
1633182960.51603985,,,,,,,,8460781,0,1500,1500,1000,1500,0,0,0,0,0,0,0,0,0,0,0,0,,,,,,,,
1633182960.77486396,8720,0.00018026030738838017,-2.684198807401117e-05,-0.21504715085029602,0.00013214994396548718,0.00030542034073732793,0.00010110808943863958,,,,,,,,,,,,,,,,,,,,,,,,,,
1633182960.77846789,,,,,,,,8720677,0,1500,1500,1000,1500,0,0,0,0,0,0,0,0,0,0,0,0,,,,,,,,
1633182961.01561999,8960,0.00018179448670707643,-1.1417805581004359e-05,-0.18775251507759094,0.00020885956473648548,0.0003103211347479373,9.035453695105389e-05,,,,,,,,,,,,,,,,,,,,,,,,,,
1633182961.10561991,,,,,,,,8960581,0,1500,1500,1000,1500,0,0,0,0,0,0,0,0,0,0,0,0,,,,,,,,
1633182961.27611184,9220,0.00019936815078835934,2.4269406821986195e-06,-0.16718728840351105,0.0001960027584573254,0.0002590547373984009,0.00026802043430507183,,,,,,,,,,,,,,,,,,,,,,,,,,
1633182961.27851987,,,,,,,,9220477,0,1500,1500,1000,1500,0,0,0,0,0,0,0,0,0,0,0,0,,,,,,,,
1633182961.51540399,9460,0.00021254301827866584,-1.010787582345074e-05,-0.15401285886764526,9.677305934019387e-05,0.00022208683367352933,0.000175161607330665,,,,,,,,,,,,,,,,,,,,,,,,,,
1633182961.51785183,,,,,,,,9460381,0,1500,1500,1000,1500,0,0,0,0,0,0,0,0,0,0,0,0,,,,,,,,
1633182961.77106404,9720,0.0002086448948830366,-1.2591907761816401e-05,-0.14409492909908295,7.349161023739725e-05,0.00016267895989585668,8.205044287024066e-05,,,,,,,,,,,,,,,,,,,,,,,,,,
1633182961.77877593,,,,,,,,9720277,0,1500,1500,1000,1500,0,0,0,0,0,0,0,0,0,0,0,0,,,,,,,,
1633182962.01591992,9960,0.0002055274526355788,-2.5793691747821867e-05,-0.13771949708461761,0.00010299453424522653,2.73812584055122e-05,8.126177999656647e-05,,,,,,,,,,,,,,,,,,,,,,,,,,
1633182962.01837182,,,,,,,,9960181,0,1500,1500,1000,1500,0,0,0,0,0,0,0,0,0,0,0,0,,,,,,,,
1633182962.27175999,10220,0.00021043812739662826,-1.4677303624921478e-05,-0.13291041553020477,0.00019274285295978189,9.547570516588166e-05,0.00023897195933386683,,,,,,,,,,,,,,,,,,,,,,,,,,
1633182962.27412796,,,,,,,,10220910,0,1500,1500,1000,1500,0,0,0,0,0,0,0,0,0,0,0,0,,,,,,,,
1633182962.51659989,10460,0.0002162550517823547,1.1689134225889575e-05,-0.1298418790102005,0.00024063764431048185,0.00016512934234924614,0.0003006503393407911,,,,,,,,,,,,,,,,,,,,,,,,,,
1633182962.51950788,,,,,,,,10460814,0,1500,1500,1000,1500,0,0,0,0,0,0,0,0,0,0,0,0,,,,,,,,
1633182962.78128791,10720,0.00022113807790447026,1.4043313058209606e-05,-0.12754365801811218,2.8529586415970698e-05,0.00022420626191888005,0.00015870769857428968,,,,,,,,,,,,,,,,,,,,,,,,,,
1633182962.78396797,,,,,,,,10720710,0,1500,1500,1000,1500,0,0,0,0,0,0,0,0,0,0,0,0,,,,,,,,
1633182963.01309586,10960,0.00022419501328840852,-5.735649210691918e-06,-0.12605740129947662,9.591673006070778e-05,0.00033737291232682765,0.00022684235591441393,,,,,,,,,,,,,,,,,,,,,,,,,,
1633182963.01575184,,,,,,,,10960614,0,1500,1500,1000,1500,0,0,0,0,0,0,0,0,0,0,0,0,,,,,,,,
1633182963.27628398,11220,0.0002370683359913528,-4.557528882287443e-06,-0.12495231628417969,0.00021747435675933957,0.00016308313934132457,2.5810819352045655e-05,,,,,,,,,,,,,,,,,,,,,,,,,,
1633182963.28201604,,,,,,,,11220510,0,1500,1500,1000,1500,0,0,0,0,0,0,0,0,0,0,0,0,,,,,,,,
1633182963.51395202,11460,0.0002212191466242075,-1.2442314982763492e-05,-0.12423857301473618,0.00020603762823157012,0.00026015876210294664,6.589612894458696e-05,,,,,,,,,,,,,,,,,,,,,,,,,,
1633182963.51899981,,,,,,,,11460414,0,1500,1500,1000,1500,0,0,0,0,0,0,0,0,0,0,0,0,,,,,,,,
1633182963.77284789,11720,0.0002205803175456822,-6.601692803087644e-06,-0.12362482398748398,0.0002384261752013117,0.00015975895803421736,0.0008465414866805077,,,,,,,,,,,,,,,,,,,,,,,,,,
1633182963.77587986,,,,,,,,11720310,0,1500,1500,1000,1500,0,0,0,0,0,0,0,0,0,0,0,0,,,,,,,,
1633182964.01196790,11960,0.00021545584604609758,-4.571549197862623e-06,-0.12313783913850784,8.08188779046759e-05,0.00032497980282641947,0.0009105798089876771,,,,,,,,,,,,,,,,,,,,,,,,,,
1633182964.01437187,,,,,,,,11960214,0,1500,1500,1000,1500,0,0,0,0,0,0,0,0,0,0,0,0,,,,,,,,
1633182964.27560401,12220,0.00022236320364754647,8.415558113483712e-06,-0.12276671826839447,0.00012130991672165692,0.00023816112661734223,0.0009376995731145144,,,,,,,,,,,,,,,,,,,,,,,,,,
1633182964.28019595,,,,,,,,12220943,0,1500,1500,1000,1500,0,0,0,0,0,0,0,0,0,0,0,0,,,,,,,,
1633182964.51264787,12460,0.00023857891210354865,9.050769222085364e-06,-0.1225382536649704,7.813451520632952e-05,0.000163394957780838,0.000832283403724432,,,,,,,,,,,,,,,,,,,,,,,,,,
1633182964.51829195,,,,,,,,12460847,0,1500,1500,1000,1500,0,0,0,0,0,0,0,0,0,0,0,0,,,,,,,,
1633182964.78477597,12720,0.0002391023881500587,1.461463762097992e-05,-0.12236766517162323,0.00024946712073870003,0.00018782603729050606,0.0008805892430245876,,,,,,,,,,,,,,,,,,,,,,,,,,
1633182964.79121184,,,,,,,,12720743,0,1500,1500,1000,1500,0,0,0,0,0,0,0,0,0,0,0,0,,,,,,,,
1633182965.01435995,12960,0.0002542374131735414,2.7793685148935765e-06,-0.12226501107215881,6.274426414165646e-05,0.000172458152519539,0.0008757621981203556,,,,,,,,,,,,,,,,,,,,,,,,,,
1633182965.01670384,,,,,,,,12960647,0,1500,1500,1000,1500,0,0,0,0,0,0,0,0,0,0,0,0,,,,,,,,
1633182965.27676392,13220,0.00025047894450835884,-1.245563180418685e-05,-0.12218578904867172,0.00015601988707203418,4.506293771555647e-05,0.000885877525433898,,,,,,,,,,,,,,,,,,,,,,,,,,
1633182965.27937984,,,,,,,,13220543,0,1500,1500,1000,1500,0,0,0,0,0,0,0,0,0,0,0,0,,,,,,,,
1633182965.51560402,13460,0.0002369372232351452,6.156179551908281e-06,-0.12213505059480667,0.0002867882722057402,0.000146553895319812,0.0009465032489970326,,,,,,,,,,,,,,,,,,,,,,,,,,
1633182965.51822400,,,,,,,,13460447,0,1500,1500,1000,1500,0,0,0,0,0,0,0,0,0,0,0,0,,,,,,,,
1633182965.77573991,13720,0.00023020086518954486,1.2980925930605736e-05,-0.12208060175180435,0.0001863029901869595,0.000147934551932849,0.0008584216702729464,,,,,,,,,,,,,,,,,,,,,,,,,,
1633182965.77999592,,,,,,,,13720343,0,1500,1500,1000,1500,0,0,0,0,0,0,0,0,0,0,0,0,,,,,,,,
1633182966.01561999,13960,0.00022170772717799991,2.707723069761414e-05,-0.12204940617084503,0.0001900257630040869,0.00023831902944948524,0.001002742676064372,,,,,,,,,,,,,,,,,,,,,,,,,,
1633182966.01807594,,,,,,,,13960247,0,1500,1500,1000,1500,0,0,0,0,0,0,0,0,0,0,0,0,,,,,,,,
1633182966.27631187,14220,0.0002255754661746323,3.5488224966684356e-05,-0.12203087657690048,7.168020965764299e-05,0.00013884459622204304,0.000799024011939764,,,,,,,,,,,,,,,,,,,,,,,,,,
1633182966.28008389,,,,,,,,14220976,0,1500,1500,1000,1500,0,0,0,0,0,0,0,0,0,0,0,0,,,,,,,,
1633182966.51533604,14460,0.00023126965970732272,3.412128717172891e-05,-0.12201695889234543,0.0002289037365699187,0.0002800404326990247,0.0010290573118254542,,,,,,,,,,,,,,,,,,,,,,,,,,
1633182966.51921201,,,,,,,,14460880,0,1500,1500,1000,1500,0,0,0,0,0,0,0,0,0,0,0,0,,,,,,,,
1633182966.77979994,14720,0.00023898434301372617,6.564651266671717e-05,-0.12200360745191574,7.00860982760787e-05,0.00012603287177626044,0.0010922723449766636,,,,,,,,,,,,,,,,,,,,,,,,,,
1633182966.78208399,,,,,,,,14720776,0,1500,1500,1000,1500,0,0,0,0,0,0,0,0,0,0,0,0,,,,,,,,
1633182967.01436782,14960,0.0002456247457303107,8.936867379816249e-05,-0.12202557921409607,0.0002717069291975349,0.00033042803988792,0.0008844849071465433,,,,,,,,,,,,,,,,,,,,,,,,,,
1633182967.01692390,,,,,,,,14960680,0,1500,1500,1000,1500,0,0,0,0,0,0,0,0,0,0,0,0,,,,,,,,
1633182967.27673602,15220,0.0002519299741834402,7.063471275614575e-05,-0.12203191965818405,0.0003046969068236649,0.00021640644990839064,0.0009003216400742531,,,,,,,,,,,,,,,,,,,,,,,,,,
1633182967.27913594,,,,,,,,15220576,0,1500,1500,1000,1500,0,0,0,0,0,0,0,0,0,0,0,0,,,,,,,,
1633182967.51557183,15460,0.00024327784194611013,5.466365109896287e-05,-0.12203055620193481,0.0002707542444113642,0.00015302971587516367,0.0010378682054579258,,,,,,,,,,,,,,,,,,,,,,,,,,
1633182967.51799989,,,,,,,,15460480,0,1500,1500,1000,1500,0,0,0,0,0,0,0,0,0,0,0,0,,,,,,,,
1633182967.77370000,15720,0.0002534240484237671,5.55447259102948e-05,-0.12203092128038406,0.00022011085820849985,0.0003134997095912695,0.0010140885133296251,,,,,,,,,,,,,,,,,,,,,,,,,,
1633182967.77641582,,,,,,,,15720376,0,1500,1500,1000,1500,0,0,0,0,0,0,0,0,0,0,0,0,,,,,,,,
1633182968.01329589,15960,0.00025044690119102597,5.045864236308262e-05,-0.1220264732837677,0.00029398087644949555,9.45379797485657e-05,0.00106447609141469,,,,,,,,,,,,,,,,,,,,,,,,,,
1633182968.02703190,,,,,,,,15960280,0,1500,1500,1000,1500,0,0,0,0,0,0,0,0,0,0,0,0,,,,,,,,
1633182968.27148390,16220,0.00023686568601988256,4.1937608330044895e-05,-0.12202505022287369,0.0002352092560613528,0.0002411789755569771,0.000743960146792233,,,,,,,,,,,,,,,,,,,,,,,,,,
1633182968.27458000,,,,,,,,16220176,0,1500,1500,1000,1500,0,0,0,0,0,0,0,0,0,0,0,0,,,,,,,,
1633182968.51404786,16460,0.0002414724149275571,3.1300060072680935e-05,-0.12201184034347534,0.00015259136853273958,0.0001498573983553797,0.0010398880112916231,,,,,,,,,,,,,,,,,,,,,,,,,,
1633182968.51693583,,,,,,,,16460913,0,1500,1500,1000,1500,0,0,0,0,0,0,0,0,0,0,0,0,,,,,,,,
1633182968.77299190,16720,0.0002500483824405819,3.379438567208126e-05,-0.1220114529132843,0.0002862302935682237,0.00029717065626755357,0.0007705521420575678,,,,,,,,,,,,,,,,,,,,,,,,,,
1633182968.77549195,,,,,,,,16720809,0,1500,1500,1000,1500,0,0,0,0,0,0,0,0,0,0,0,0,,,,,,,,
1633182969.01461196,16960,0.00024504336761310697,5.3755757107865065e-05,-0.12202370166778564,0.00028907478554174304,0.0002015198697336018,0.001029945444315672,,,,,,,,,,,,,,,,,,,,,,,,,,
1633182969.01701593,,,,,,,,16960713,0,1500,1500,1000,1500,0,0,0,0,0,0,0,0,0,0,0,0,,,,,,,,
1633182969.27471995,17220,0.00024688534904271364,7.981011731317267e-05,-0.12201625108718872,0.00022417311265598983,0.00019643585255835205,0.0010974835604429245,,,,,,,,,,,,,,,,,,,,,,,,,,
1633182969.27894402,,,,,,,,17220609,0,1500,1500,1000,1500,0,0,0,0,0,0,0,0,0,0,0,0,,,,,,,,
1633182969.51537585,17460,0.0002569468633737415,9.915392729453743e-05,-0.1220254898071289,0.0002561045403126627,0.00019348865316715091,0.001116965664550662,,,,,,,,,,,,,,,,,,,,,,,,,,
1633182969.51789999,,,,,,,,17460513,0,1500,1500,1000,1500,0,0,0,0,0,0,0,0,0,0,0,0,,,,,,,,
1633182969.77434802,17720,0.00028937883325852454,9.72471316345036e-05,-0.12205411493778229,0.00027217715978622437,0.0003190681163687259,0.0008302631904371083,,,,,,,,,,,,,,,,,,,,,,,,,,
1633182969.77717590,,,,,,,,17720409,0,1500,1500,1000,1500,0,0,0,0,0,0,0,0,0,0,0,0,,,,,,,,
1633182970.01593995,17960,0.00028931983979418874,7.665988232474774e-05,-0.12208209931850433,0.00030220975168049335,0.00014906232536304742,0.001045870827510953,,,,,,,,,,,,,,,,,,,,,,,,,,
1633182970.01863599,,,,,,,,17960313,0,1500,1500,1000,1500,0,0,0,0,0,0,0,0,0,0,0,0,,,,,,,,
1633182970.27341604,18220,0.000314802338834852,6.252634193515405e-05,-0.12210094928741455,0.0002015455684158951,0.00024345595738850534,0.001021099858917296,,,,,,,,,,,,,,,,,,,,,,,,,,
1633182970.27584791,,,,,,,,18220209,0,1500,1500,1000,1500,0,0,0,0,0,0,0,0,0,0,0,0,,,,,,,,
1633182970.51670003,18460,0.0002988172054756433,2.6525161956669763e-05,-0.12212137132883072,0.0001286440237890929,0.0002762020449154079,0.0008613435202278197,,,,,,,,,,,,,,,,,,,,,,,,,,
1633182970.51927185,,,,,,,,18460946,0,1500,1500,1000,1500,0,0,0,0,0,0,0,0,0,0,0,0,,,,,,,,
1633182970.77747989,18720,0.00028966693207621574,2.3248583602253348e-05,-0.12210749834775925,0.00029163301223888993,0.00021875738457310945,0.001016168505884707,,,,,,,,,,,,,,,,,,,,,,,,,,
1633182970.78182793,,,,,,,,18720842,0,1500,1500,1000,1500,0,0,0,0,0,0,0,0,0,0,0,0,,,,,,,,
1633182971.01403999,18960,0.0002841383102349937,4.16348448197823e-05,-0.12209951132535934,0.0002780274662654847,0.00036908811307512224,0.0010032712016254663,,,,,,,,,,,,,,,,,,,,,,,,,,
1633182971.01699185,,,,,,,,18960746,0,1500,1500,1000,1500,0,0,0,0,0,0,0,0,0,0,0,0,,,,,,,,
1633182971.27716804,19220,0.0002789355639833957,5.6895958550740033e-05,-0.1220947653055191,0.00032271354575641453,0.00025665669818408787,0.0010886617237702012,,,,,,,,,,,,,,,,,,,,,,,,,,
1633182971.28148389,,,,,,,,19220642,0,1500,1500,1000,1500,0,0,0,0,0,0,0,0,0,0,0,0,,,,,,,,
1633182971.51424384,19460,0.00031708215828984976,8.834298205329105e-05,-0.12207312136888504,0.00018456434190738946,6.697516073472798e-05,0.0002418455551378429,,,,,,,,,,,,,,,,,,,,,,,,,,
1633182971.51657987,,,,,,,,19460546,0,1500,1500,1000,1500,0,0,0,0,0,0,0,0,0,0,0,0,,,,,,,,
1633182971.77352786,19720,0.0003319667011965066,0.00010039752669399604,-0.1220846176147461,4.9375390517525375e-05,9.643468365538865e-05,0.00022816236014477909,,,,,,,,,,,,,,,,,,,,,,,,,,
1633182971.77733183,,,,,,,,19720442,0,1500,1500,1000,1500,0,0,0,0,0,0,0,0,0,0,0,0,,,,,,,,
1633182972.01701188,19960,0.00035276846028864384,0.00011376475595170632,-0.12210272252559662,0.00020058818336110562,8.693913696333766e-05,0.00016356146079488099,,,,,,,,,,,,,,,,,,,,,,,,,,
1633182972.02001595,,,,,,,,19960346,0,1500,1500,1000,1500,0,0,0,0,0,0,0,0,0,0,0,0,,,,,,,,
1633182972.27394390,20220,0.0003716145292855799,0.00013762162416242063,-0.12211964279413223,0.00014972779899835587,0.0001424898364348337,0.00015617822646163404,,,,,,,,,,,,,,,,,,,,,,,,,,
1633182972.28015995,,,,,,,,20220242,0,1500,1500,1000,1500,0,0,0,0,0,0,0,0,0,0,0,0,,,,,,,,
1633182972.51195598,20460,0.0003864640311803669,0.00015715415065642446,-0.12214285135269165,0.00017589755589142442,9.797872917260975e-05,0.00015110896492842585,,,,,,,,,,,,,,,,,,,,,,,,,,
1633182972.51434803,,,,,,,,20460146,0,1500,1500,1000,1500,0,0,0,0,0,0,0,0,0,0,0,0,,,,,,,,
1633182972.77626801,20720,0.0003994296712335199,0.00016953326121438295,-0.12216787785291672,0.00017709206440486014,0.00013042011414654553,0.00015508642536588013,,,,,,,,,,,,,,,,,,,,,,,,,,
1633182972.77864003,,,,,,,,20720875,0,1500,1500,1000,1500,0,0,0,0,0,0,0,0,0,0,0,0,,,,,,,,
1633182973.01643181,20960,0.00040518579771742225,0.00017638743156567216,-0.12219489365816116,0.000178955277078785,5.747385148424655e-05,0.00016598599904682487,,,,,,,,,,,,,,,,,,,,,,,,,,
1633182973.01927185,,,,,,,,20960779,0,1500,1500,1000,1500,0,0,0,0,0,0,0,0,0,0,0,0,,,,,,,,
1633182973.27600789,21220,0.00041067408164963126,0.00017803613445721567,-0.12222094088792801,0.00010219842079095542,6.820967246312648e-05,0.00015986000653356314,,,,,,,,,,,,,,,,,,,,,,,,,,
1633182973.27823186,,,,,,,,21220675,0,1500,1500,1000,1500,0,0,0,0,0,0,0,0,0,0,0,0,,,,,,,,
1633182973.51673985,21460,0.00040012452518567443,0.00016810155648272485,-0.12224098294973373,0.00021113507682457566,6.294244667515159e-05,0.00017565394227858633,,,,,,,,,,,,,,,,,,,,,,,,,,
1633182973.51943183,,,,,,,,21460579,0,1500,1500,1000,1500,0,0,0,0,0,0,0,0,0,0,0,0,,,,,,,,
1633182973.77491188,21720,0.0003951093531213701,0.00015369556786026806,-0.12225747853517532,0.00012958722072653472,0.00014824671961832792,0.00014155601093079895,,,,,,,,,,,,,,,,,,,,,,,,,,
1633182973.77749586,,,,,,,,21720475,0,1500,1500,1000,1500,0,0,0,0,0,0,0,0,0,0,0,0,,,,,,,,
1633182974.01561189,21960,0.00038625390152446926,0.00014568910410162061,-0.12227144092321396,0.0002237696899101138,0.0001321238960372284,0.00016263801080640405,,,,,,,,,,,,,,,,,,,,,,,,,,
1633182974.01818395,,,,,,,,21960379,0,1500,1500,1000,1500,0,0,0,0,0,0,0,0,0,0,0,0,,,,,,,,
1633182974.27560782,22220,0.00037991016870364547,0.00013521756045520306,-0.12228795886039734,0.00018635240849107504,0.00010572464088909328,0.00013692665379494429,,,,,,,,,,,,,,,,,,,,,,,,,,
1633182974.27800393,,,,,,,,22220275,0,1500,1500,1000,1500,0,0,0,0,0,0,0,0,0,0,0,0,,,,,,,,
1633182974.51554799,22460,0.0003709487209562212,0.00012190426787128672,-0.12229465693235397,0.00016790888912510127,0.00012018939014524221,0.00014735950389876962,,,,,,,,,,,,,,,,,,,,,,,,,,
1633182974.51798391,,,,,,,,22460179,0,1500,1500,1000,1500,0,0,0,0,0,0,0,0,0,0,0,0,,,,,,,,
1633182974.77640796,22720,0.00036422425182536244,0.00012008201883872971,-0.1222987100481987,0.00011696456931531429,0.0001125644485000521,0.00012025691103190184,,,,,,,,,,,,,,,,,,,,,,,,,,
1633182974.77877593,,,,,,,,22720908,0,1500,1500,1000,1500,0,0,0,0,0,0,0,0,0,0,0,0,,,,,,,,
1633182975.01490784,22960,0.0003646788827609271,0.00011857695790240541,-0.12230361998081207,0.00017000258958432823,7.053080480545759e-05,0.00018447967886459082,,,,,,,,,,,,,,,,,,,,,,,,,,
1633182975.01745582,,,,,,,,22960812,0,1500,1500,1000,1500,0,0,0,0,0,0,0,0,0,0,0,0,,,,,,,,
1633182975.27435589,23220,0.00036191826802678406,0.00012240608339197934,-0.12230520695447922,8.270684338640422e-05,0.00013769282668363303,0.00018662055663298815,,,,,,,,,,,,,,,,,,,,,,,,,,
1633182975.28105998,,,,,,,,23220708,0,1500,1500,1000,1500,0,0,0,0,0,0,0,0,0,0,0,0,,,,,,,,
1633182975.51597595,23460,0.00036181617178954184,0.00012025590694975108,-0.12230392545461655,0.00017332614515908062,0.00012106471695005894,0.00011426369019318372,,,,,,,,,,,,,,,,,,,,,,,,,,
1633182975.51853991,,,,,,,,23460612,0,1500,1500,1000,1500,0,0,0,0,0,0,0,0,0,0,0,0,,,,,,,,
1633182975.77679181,23720,0.00036059864214621484,0.00011623302270891145,-0.12231185287237167,9.272067109122872e-05,3.415445098653436e-05,0.0001626541488803923,,,,,,,,,,,,,,,,,,,,,,,,,,
1633182975.78315997,,,,,,,,23720508,0,1500,1500,1000,1500,0,0,0,0,0,0,0,0,0,0,0,0,,,,,,,,
1633182976.01743197,23960,0.00037028134102001786,0.00011849236761918291,-0.1223156601190567,0.00013279906124807894,9.901652811095119e-05,0.00017588268383406103,,,,,,,,,,,,,,,,,,,,,,,,,,
1633182976.02008390,,,,,,,,23960412,0,1500,1500,1000,1500,0,0,0,0,0,0,0,0,0,0,0,0,,,,,,,,
1633182976.27256393,24220,0.0003802701539825648,0.00012548157246783376,-0.12231700122356415,0.0002110560453729704,5.068446625955403e-05,7.84650765126571e-05,,,,,,,,,,,,,,,,,,,,,,,,,,
1633182976.27503586,,,,,,,,24220308,0,1500,1500,1000,1500,0,0,0,0,0,0,0,0,0,0,0,0,,,,,,,,
1633182976.51716805,24460,0.0003836089454125613,0.00013014394789934158,-0.1223185807466507,0.00015432840154971927,0.00013694330118596554,0.00019920409249607474,,,,,,,,,,,,,,,,,,,,,,,,,,
1633182976.51991200,,,,,,,,24460212,0,1500,1500,1000,1500,0,0,0,0,0,0,0,0,0,0,0,0,,,,,,,,
1633182976.77677584,24720,0.0003920409071724862,0.00014033741899766028,-0.12231890112161636,0.00017042573017533869,0.00011668249499052763,0.00019977748161181808,,,,,,,,,,,,,,,,,,,,,,,,,,
1633182976.79263186,,,,,,,,24720941,0,1500,1500,1000,1500,0,0,0,0,0,0,0,0,0,0,0,0,,,,,,,,
1633182977.01559997,24960,0.0004012527933809906,0.00014874766930006444,-0.12231836467981339,0.00016086696996353567,0.0001033592561725527,0.00020927336299791932,,,,,,,,,,,,,,,,,,,,,,,,,,
1633182977.02239203,,,,,,,,24960845,0,1500,1500,1000,1500,0,0,0,0,0,0,0,0,0,0,0,0,,,,,,,,
1633182977.27469587,25220,0.0004126782005187124,0.00016260960546787828,-0.12231733649969101,0.0001232467038789764,0.00016123749082908034,0.0001526756677776575,,,,,,,,,,,,,,,,,,,,,,,,,,
1633182977.27727199,,,,,,,,25220741,0,1500,1500,1000,1500,0,0,0,0,0,0,0,0,0,0,0,0,,,,,,,,
1633182977.51549602,25460,0.0004209033213555813,0.00017589608614798635,-0.1223219484090805,0.0001348914811387658,0.00010476741590537131,0.00013124856923241168,,,,,,,,,,,,,,,,,,,,,,,,,,
1633182977.51783586,,,,,,,,25460645,0,1500,1500,1000,1500,0,0,0,0,0,0,0,0,0,0,0,0,,,,,,,,
1633182977.77253604,25720,0.00043517310405150056,0.00019143661484122276,-0.12232818454504013,0.00016719971608836204,0.00017958413809537888,0.00020495580974966288,,,,,,,,,,,,,,,,,,,,,,,,,,
1633182977.77518797,,,,,,,,25720541,0,1500,1500,1000,1500,0,0,0,0,0,0,0,0,0,0,0,0,,,,,,,,
1633182978.01446795,25960,0.0004500262439250946,0.00020252256945241243,-0.12233099341392517,0.00015853741206228733,8.213144610635936e-05,0.00013446650700643659,,,,,,,,,,,,,,,,,,,,,,,,,,
1633182978.01692796,,,,,,,,25960445,0,1500,1500,1000,1500,0,0,0,0,0,0,0,0,0,0,0,0,,,,,,,,
1633182978.27269197,26220,0.00046631001168861985,0.00021865889721084386,-0.12233848124742508,0.00017796098836697638,0.0001579862437210977,0.00017316133016720414,,,,,,,,,,,,,,,,,,,,,,,,,,
1633182978.27510786,,,,,,,,26220341,0,1500,1500,1000,1500,0,0,0,0,0,0,0,0,0,0,0,0,,,,,,,,
1633182978.51591992,26460,0.0004788614169228822,0.0002323437947779894,-0.12235354632139206,0.00015898732817731798,0.00016432168195024133,0.00017012392345350236,,,,,,,,,,,,,,,,,,,,,,,,,,
1633182978.51827192,,,,,,,,26460245,0,1500,1500,1000,1500,0,0,0,0,0,0,0,0,0,0,0,0,,,,,,,,
1633182978.77528787,26720,0.0004913525190204382,0.0002473802014719695,-0.12236136943101883,0.00015819945838302374,0.00013971648877486587,0.00019253705977462232,,,,,,,,,,,,,,,,,,,,,,,,,,
1633182978.77746391,,,,,,,,26720974,0,1500,1500,1000,1500,0,0,0,0,0,0,0,0,0,0,0,0,,,,,,,,
1633182979.01649594,26960,0.0005092703504487872,0.00025401616585440934,-0.12237019091844559,0.00020461056556086987,0.0001617944799363613,0.0001910909340949729,,,,,,,,,,,,,,,,,,,,,,,,,,
1633182979.02380800,,,,,,,,26960878,0,1500,1500,1000,1500,0,0,0,0,0,0,0,0,0,0,0,0,,,,,,,,
1633182979.27831602,27220,0.0005212270189076662,0.00027044385205954313,-0.12238070368766785,0.000249785662163049,0.0001680822460912168,0.00018940831068903208,,,,,,,,,,,,,,,,,,,,,,,,,,
1633182979.28080392,,,,,,,,27220774,0,1500,1500,1000,1500,0,0,0,0,0,0,0,0,0,0,0,0,,,,,,,,
1633182979.51479602,27460,0.000537494255695492,0.0002842932299245149,-0.12239043414592743,0.00014641485176980495,0.00016735299141146243,0.00021326253772713244,,,,,,,,,,,,,,,,,,,,,,,,,,
1633182979.51715994,,,,,,,,27460678,0,1500,1500,1000,1500,0,0,0,0,0,0,0,0,0,0,0,0,,,,,,,,
1633182979.77791190,27720,0.000549261225387454,0.000297416903777048,-0.12241052836179733,0.0001533860486233607,0.00011362711666151881,0.00013955860049463809,,,,,,,,,,,,,,,,,,,,,,,,,,
1633182979.78048396,,,,,,,,27720574,0,1500,1500,1000,1500,0,0,0,0,0,0,0,0,0,0,0,0,,,,,,,,
1633182980.01475596,27960,0.0005616575945168734,0.00031257732189260423,-0.12242468446493149,0.000154382738401182,9.863963350653648e-05,0.00014420022489503026,,,,,,,,,,,,,,,,,,,,,,,,,,
1633182980.01732397,,,,,,,,27960478,0,1500,1500,1000,1500,0,0,0,0,0,0,0,0,0,0,0,0,,,,,,,,
1633182980.27795982,28220,0.0005756453610956669,0.00032484979601576924,-0.1224386990070343,0.0001611251209396869,6.715537165291607e-05,0.00014565422316081822,,,,,,,,,,,,,,,,,,,,,,,,,,
1633182980.28044796,,,,,,,,28220374,0,1500,1500,1000,1500,0,0,0,0,0,0,0,0,0,0,0,0,,,,,,,,
1633182980.51759601,28460,0.0005839356454089284,0.0003404089657124132,-0.12245151400566101,0.0001622863346710801,0.0001419265754520893,8.359178900718689e-05,,,,,,,,,,,,,,,,,,,,,,,,,,
1633182980.52020383,,,,,,,,28460278,0,1500,1500,1000,1500,0,0,0,0,0,0,0,0,0,0,0,0,,,,,,,,
1633182980.77616000,28720,0.000595986086409539,0.00034882553154602647,-0.1224709153175354,0.0002589437644928694,0.0001260049466509372,0.0001316291163675487,,,,,,,,,,,,,,,,,,,,,,,,,,
1633182980.77855992,,,,,,,,28720174,0,1500,1500,1000,1500,0,0,0,0,0,0,0,0,0,0,0,0,,,,,,,,
1633182981.01833582,28960,0.0006099717575125396,0.00035885130637325346,-0.1224789097905159,0.00021795301290694624,0.00010807407670654356,0.00023332051932811737,,,,,,,,,,,,,,,,,,,,,,,,,,
1633182981.02086401,,,,,,,,28960911,0,1500,1500,1000,1500,0,0,0,0,0,0,0,0,0,0,0,0,,,,,,,,
1633182981.27447581,29220,0.0006210628198459744,0.0003798050747718662,-0.12249359488487244,0.00016486219828948379,0.00020449902513064444,0.0001579386880621314,,,,,,,,,,,,,,,,,,,,,,,,,,
1633182981.27737999,,,,,,,,29220807,0,1500,1500,1000,1500,0,0,0,0,0,0,0,0,0,0,0,0,,,,,,,,
1633182981.51417589,29460,0.0006392902578227222,0.00038605782901868224,-0.1225070133805275,0.000222636794205755,0.00012592063285410404,9.135069558396935e-05,,,,,,,,,,,,,,,,,,,,,,,,,,
1633182981.51663995,,,,,,,,29460711,0,1500,1500,1000,1500,0,0,0,0,0,0,0,0,0,0,0,0,,,,,,,,
1633182981.77426791,29720,0.0006533665582537651,0.00039201174513436854,-0.12252670526504517,0.0001921566727105528,0.00016678040265105665,0.00019572771270759404,,,,,,,,,,,,,,,,,,,,,,,,,,
1633182981.77677202,,,,,,,,29720607,0,1500,1500,1000,1500,0,0,0,0,0,0,0,0,0,0,0,0,,,,,,,,
1633182982.01411200,29960,0.0006593530415557325,0.0003982696507591754,-0.12253962457180023,0.00016711282660253346,0.00014555593952536583,0.00014911967446096241,,,,,,,,,,,,,,,,,,,,,,,,,,
1633182982.02371192,,,,,,,,29960511,0,1500,1500,1000,1500,0,0,0,0,0,0,0,0,0,0,0,0,,,,,,,,
1633182982.27435184,30220,0.0006660642684437335,0.00040793532389216125,-0.12255585938692093,0.0001991352328332141,0.0001851562992669642,0.00012981242616660893,,,,,,,,,,,,,,,,,,,,,,,,,,
1633182982.27941585,,,,,,,,30220407,0,1500,1500,1000,1500,0,0,0,0,0,0,0,0,0,0,0,0,,,,,,,,
1633182982.51665592,30460,0.000677148753311485,0.0004116095951758325,-0.12257266044616699,0.00024979657609947026,0.00011047295993193984,0.00015353801427409053,,,,,,,,,,,,,,,,,,,,,,,,,,
1633182982.52606392,,,,,,,,30460311,0,1500,1500,1000,1500,0,0,0,0,0,0,0,0,0,0,0,0,,,,,,,,
1633182982.77445197,30720,0.0006884376634843647,0.0004223899741191417,-0.12259218096733093,0.00020906452846247703,0.00014977180399000645,8.401722880080342e-05,,,,,,,,,,,,,,,,,,,,,,,,,,
1633182982.77965593,,,,,,,,30720207,0,1500,1500,1000,1500,0,0,0,0,0,0,0,0,0,0,0,0,,,,,,,,
1633182983.01835585,30960,0.0007003440987318754,0.00043587584514170885,-0.12261374294757843,0.00022100578644312918,0.00012119644088670611,0.00014043963165022433,,,,,,,,,,,,,,,,,,,,,,,,,,
1633182983.02103186,,,,,,,,30960944,0,1500,1500,1000,1500,0,0,0,0,0,0,0,0,0,0,0,0,,,,,,,,
1633182983.27551985,31220,0.0007173405028879642,0.0004426256928127259,-0.12263091653585434,0.00026290660025551915,0.00021347604342736304,0.00018970482051372528,,,,,,,,,,,,,,,,,,,,,,,,,,
1633182983.27787995,,,,,,,,31220840,0,1500,1500,1000,1500,0,0,0,0,0,0,0,0,0,0,0,0,,,,,,,,
1633182983.51465201,31460,0.000728991290088743,0.00044892416917718947,-0.1226428970694542,0.00015863792214076966,0.0002209395170211792,0.00023554603103548288,,,,,,,,,,,,,,,,,,,,,,,,,,
1633182983.52265596,,,,,,,,31460744,0,1500,1500,1000,1500,0,0,0,0,0,0,0,0,0,0,0,0,,,,,,,,
1633182983.77606797,31720,0.0007390068494714797,0.0004591546021401882,-0.12265989184379578,0.00021560362074524164,0.00011393427848815918,0.0001347553334198892,,,,,,,,,,,,,,,,,,,,,,,,,,
1633182983.77869201,,,,,,,,31720640,0,1500,1500,1000,1500,0,0,0,0,0,0,0,0,0,0,0,0,,,,,,,,
1633182984.01832390,31960,0.000746248522773385,0.0004687451873905957,-0.12267159670591354,0.00021388987079262733,0.00017846966511569917,0.00010496019967831671,,,,,,,,,,,,,,,,,,,,,,,,,,
1633182984.02078795,,,,,,,,31960544,0,1500,1500,1000,1500,0,0,0,0,0,0,0,0,0,0,0,0,,,,,,,,
1633182984.27418804,32220,0.000755578454118222,0.00047421938506886363,-0.12269201129674911,0.0002506469318177551,0.00018047299818135798,9.477813728153706e-05,,,,,,,,,,,,,,,,,,,,,,,,,,
1633182984.27689981,,,,,,,,32220440,0,1500,1500,1000,1500,0,0,0,0,0,0,0,0,0,0,0,0,,,,,,,,
1633182984.51479983,32460,0.0007608021260239184,0.0004826755612157285,-0.12270939350128174,0.0002709557593334466,0.00023575700470246375,0.00018407028983347118,,,,,,,,,,,,,,,,,,,,,,,,,,
1633182984.52287984,,,,,,,,32460344,0,1500,1500,1000,1500,0,0,0,0,0,0,0,0,0,0,0,0,,,,,,,,
1633182984.77835989,32720,0.0007712571532465518,0.0004963033134117723,-0.12271877378225327,0.00019656200311146677,0.00022209915914572775,0.0001556524366606027,,,,,,,,,,,,,,,,,,,,,,,,,,
1633182984.78058791,,,,,,,,32720240,0,1500,1500,1000,1500,0,0,0,0,0,0,0,0,0,0,0,0,,,,,,,,
1633182985.01416802,32960,0.0007816575816832483,0.0005044330027885735,-0.12273090332746506,0.00028918543830513954,0.00018267909763380885,0.00011014268966391683,,,,,,,,,,,,,,,,,,,,,,,,,,
1633182985.01655197,,,,,,,,32960977,0,1500,1500,1000,1500,0,0,0,0,0,0,0,0,0,0,0,0,,,,,,,,
1633182985.27893591,33220,0.0007948307320475578,0.0005160854780115187,-0.12274407595396042,0.00016714807134121656,0.00019553612219169736,0.00020642607705667615,,,,,,,,,,,,,,,,,,,,,,,,,,
1633182985.28149199,,,,,,,,33220873,0,1500,1500,1000,1500,0,0,0,0,0,0,0,0,0,0,0,0,,,,,,,,
1633182985.51399589,33460,0.000806062831543386,0.0005276615847833455,-0.12275796383619308,0.00032853579614311457,0.0001742429449222982,0.00012822309508919716,,,,,,,,,,,,,,,,,,,,,,,,,,
1633182985.51647592,,,,,,,,33460777,0,1500,1500,1000,1500,0,0,0,0,0,0,0,0,0,0,0,0,,,,,,,,
1633182985.77688789,33720,0.0008100450504571199,0.0005370963481254876,-0.12276697158813477,0.0002861172833945602,0.00024258633493445814,0.00012306001735851169,,,,,,,,,,,,,,,,,,,,,,,,,,
1633182985.77931595,,,,,,,,33720673,0,1500,1500,1000,1500,0,0,0,0,0,0,0,0,0,0,0,0,,,,,,,,
1633182986.01543999,33960,0.0008158370037563145,0.0005441320245154202,-0.122777059674263,0.00023432233138009906,0.00011429816368035972,0.00018916235421784222,,,,,,,,,,,,,,,,,,,,,,,,,,
1633182986.01781201,,,,,,,,33960577,0,1500,1500,1000,1500,0,0,0,0,0,0,0,0,0,0,0,0,,,,,,,,
1633182986.27871203,34220,0.000824516755528748,0.0005575988325290382,-0.12279153615236282,0.0002350317663513124,0.00021044185268692672,0.00018941238522529602,,,,,,,,,,,,,,,,,,,,,,,,,,
1633182986.28110790,,,,,,,,34220473,0,1500,1500,1000,1500,0,0,0,0,0,0,0,0,0,0,0,0,,,,,,,,
1633182986.51338387,34460,0.0008330923155881464,0.0005693490384146571,-0.1228039488196373,0.00017284313798882067,0.00014611287042498589,0.0001441407948732376,,,,,,,,,,,,,,,,,,,,,,,,,,
1633182986.51592803,,,,,,,,34460377,0,1500,1500,1000,1500,0,0,0,0,0,0,0,0,0,0,0,0,,,,,,,,
1633182986.77665997,34720,0.0008334185113199055,0.0005817713681608438,-0.12281619757413864,0.00016173446783795953,0.00020657875575125217,0.000145259517012164,,,,,,,,,,,,,,,,,,,,,,,,,,
1633182986.77920794,,,,,,,,34720273,0,1500,1500,1000,1500,0,0,0,0,0,0,0,0,0,0,0,0,,,,,,,,
1633182987.01684403,34960,0.0008374514291062951,0.000584011897444725,-0.12283075600862503,0.00014574799570254982,0.00012203189544379711,9.847898036241531e-05,,,,,,,,,,,,,,,,,,,,,,,,,,
1633182987.01953983,,,,,,,,34960177,0,1500,1500,1000,1500,0,0,0,0,0,0,0,0,0,0,0,0,,,,,,,,
1633182987.27525592,35220,0.0008482058183290064,0.0005967316683381796,-0.12284291535615921,0.00028859361191280186,0.00016262478311546147,0.00018526596250012517,,,,,,,,,,,,,,,,,,,,,,,,,,
1633182987.27766395,,,,,,,,35220906,0,1500,1500,1000,1500,0,0,0,0,0,0,0,0,0,0,0,0,,,,,,,,
1633182987.51751590,35460,0.0008555423119105399,0.0005967469769529998,-0.12285315245389938,0.00019657504162751138,0.00017909056623466313,0.00011055663344450295,,,,,,,,,,,,,,,,,,,,,,,,,,
1633182987.52026391,,,,,,,,35460810,0,1500,1500,1000,1500,0,0,0,0,0,0,0,0,0,0,0,0,,,,,,,,
1633182987.77596402,35720,0.0008590244688093662,0.0005982526345178485,-0.12286163121461868,0.00024425232550129294,0.00017281522741541266,0.00013659789692610502,,,,,,,,,,,,,,,,,,,,,,,,,,
1633182987.77836394,,,,,,,,35720706,0,1500,1500,1000,1500,0,0,0,0,0,0,0,0,0,0,0,0,,,,,,,,
1633182988.01412797,35960,0.000862311921082437,0.000610995979513973,-0.12287212163209915,0.0002102851285599172,0.00018237624317407608,0.000191954750334844,,,,,,,,,,,,,,,,,,,,,,,,,,
1633182988.02008796,,,,,,,,35960610,0,1500,1500,1000,1500,0,0,0,0,0,0,0,0,0,0,0,0,,,,,,,,
1633182988.28071594,36220,0.0008744799997657537,0.0006201064097695053,-0.12288788706064224,0.00026745034847408533,0.00017225209739990532,0.00018982603796757758,,,,,,,,,,,,,,,,,,,,,,,,,,
1633182988.28329182,,,,,,,,36220506,0,1500,1500,1000,1500,0,0,0,0,0,0,0,0,0,0,0,0,,,,,,,,
1633182988.51738787,36460,0.000883687287569046,0.0006293902988545597,-0.1228984072804451,0.00025450208340771496,0.00016047820099629462,0.0001814546703826636,,,,,,,,,,,,,,,,,,,,,,,,,,
1633182988.52005601,,,,,,,,36460410,0,1500,1500,1000,1500,0,0,0,0,0,0,0,0,0,0,0,0,,,,,,,,
1633182988.77665997,36720,0.0008907365263439715,0.0006352426134981215,-0.12290235608816147,0.0002567580377217382,0.00020184696768410504,0.00021666751126758754,,,,,,,,,,,,,,,,,,,,,,,,,,
1633182988.77915597,,,,,,,,36720306,0,1500,1500,1000,1500,0,0,0,0,0,0,0,0,0,0,0,0,,,,,,,,
1633182989.01875997,36960,0.0008982231956906617,0.0006421723519451916,-0.1229177787899971,0.00031331670470535755,0.00018627720419317484,9.625597158446908e-05,,,,,,,,,,,,,,,,,,,,,,,,,,
1633182989.02125192,,,,,,,,36960210,0,1500,1500,1000,1500,0,0,0,0,0,0,0,0,0,0,0,0,,,,,,,,
1633182989.28041601,37220,0.0009030458168126643,0.000651549780741334,-0.12292789667844772,0.00021295563783496618,0.0001806418295018375,0.00018375940271653235,,,,,,,,,,,,,,,,,,,,,,,,,,
1633182989.28353190,,,,,,,,37220939,0,1500,1500,1000,1500,0,0,0,0,0,0,0,0,0,0,0,0,,,,,,,,
1633182989.51539183,37460,0.0009056059061549604,0.0006517957081086934,-0.12293677777051926,0.00018652674043551087,0.0001781898899935186,0.0001637134118936956,,,,,,,,,,,,,,,,,,,,,,,,,,
1633182989.51883197,,,,,,,,37460843,0,1500,1500,1000,1500,0,0,0,0,0,0,0,0,0,0,0,0,,,,,,,,
1633182989.77652383,37720,0.0009158154716715217,0.000660809688270092,-0.12294352799654007,0.00018103828188031912,0.00022307675681076944,0.0001781514729373157,,,,,,,,,,,,,,,,,,,,,,,,,,
1633182989.78036404,,,,,,,,37720739,0,1500,1500,1000,1500,0,0,0,0,0,0,0,0,0,0,0,0,,,,,,,,
1633182990.01925993,37960,0.0009176736930385232,0.0006664057727903128,-0.12294508516788483,0.0001982920803129673,0.00016134552424773574,0.0002310647687409073,,,,,,,,,,,,,,,,,,,,,,,,,,
1633182990.02165604,,,,,,,,37960643,0,1500,1500,1000,1500,0,0,0,0,0,0,0,0,0,0,0,0,,,,,,,,
1633182990.27928782,38220,0.0009288816363550723,0.0006770540494471788,-0.1229475885629654,0.00022959487978368998,0.000199188943952322,0.0001423842622898519,,,,,,,,,,,,,,,,,,,,,,,,,,
1633182990.28171182,,,,,,,,38220539,0,1500,1500,1000,1500,0,0,0,0,0,0,0,0,0,0,0,0,,,,,,,,
1633182990.51505589,38460,0.0009346760925836861,0.0006772078340873122,-0.12295330315828323,0.0002669559034984559,0.00018040422582998872,0.0001885159290395677,,,,,,,,,,,,,,,,,,,,,,,,,,
1633182990.51758003,,,,,,,,38460443,0,1500,1500,1000,1500,0,0,0,0,0,0,0,0,0,0,0,0,,,,,,,,
1633182990.77992392,38720,0.0009383433498442173,0.0006807629251852632,-0.12295391410589218,0.0003041412273887545,0.00014959846157580614,0.0003159027546644211,,,,,,,,,,,,,,,,,,,,,,,,,,
1633182990.78224397,,,,,,,,38720339,0,1500,1500,1000,1500,0,0,0,0,0,0,0,0,0,0,0,0,,,,,,,,
1633182991.01868796,38960,0.000950011657550931,0.0006888763164170086,-0.1229584589600563,0.0002426890714559704,0.00021141156321391463,0.00017462408868595958,,,,,,,,,,,,,,,,,,,,,,,,,,
1633182991.02928782,,,,,,,,38960243,0,1500,1500,1000,1500,0,0,0,0,0,0,0,0,0,0,0,0,,,,,,,,
1633182991.27963591,39220,0.0009564525098539889,0.0006957662990316749,-0.12296301871538162,0.00020511657930910587,0.00025189845473505557,0.0001813345297705382,,,,,,,,,,,,,,,,,,,,,,,,,,
1633182991.28217196,,,,,,,,39220972,0,1500,1500,1000,1500,0,0,0,0,0,0,0,0,0,0,0,0,,,,,,,,
1633182991.51821995,39460,0.000961350800935179,0.0007010266999714077,-0.12296406924724579,0.00026290680398233235,0.00018687528790906072,0.0002212370454799384,,,,,,,,,,,,,,,,,,,,,,,,,,
1633182991.52085185,,,,,,,,39460876,0,1500,1500,1000,1500,0,0,0,0,0,0,0,0,0,0,0,0,,,,,,,,
1633182991.77543998,39720,0.0009679868817329407,0.0007114133331924677,-0.12297382205724716,0.00026078298105858266,0.00024203292559832335,0.00016342682647518814,,,,,,,,,,,,,,,,,,,,,,,,,,
1633182991.77777982,,,,,,,,39720772,0,1500,1500,1000,1500,0,0,0,0,0,0,0,0,0,0,0,0,,,,,,,,
1633182992.01929188,39960,0.0009754406637512147,0.0007151172612793744,-0.12297741323709488,0.00022981740767136216,0.00019897904712706804,0.00024256695178337395,,,,,,,,,,,,,,,,,,,,,,,,,,
1633182992.02169991,,,,,,,,39960676,0,1500,1500,1000,1500,0,0,0,0,0,0,0,0,0,0,0,0,,,,,,,,
1633182992.27533603,40220,0.00098134926520288,0.0007238310063257813,-0.1229751855134964,0.0002749412669800222,0.0002567764313425869,0.00023813825100660324,,,,,,,,,,,,,,,,,,,,,,,,,,
1633182992.27999187,,,,,,,,40220572,0,1500,1500,1000,1500,0,0,0,0,0,0,0,0,0,0,0,0,,,,,,,,
1633182992.51445985,40460,0.0009908181382343173,0.0007344255573116243,-0.12297957390546799,0.00027843870338983834,0.0003251374582760036,0.0001885322853922844,,,,,,,,,,,,,,,,,,,,,,,,,,
1633182992.51717186,,,,,,,,40460476,0,1500,1500,1000,1500,0,0,0,0,0,0,0,0,0,0,0,0,,,,,,,,
1633182992.77677584,40720,0.0009973006090149283,0.0007440955378115177,-0.12297984212636948,0.0002257780870422721,0.00023886674898676574,0.0001497755292803049,,,,,,,,,,,,,,,,,,,,,,,,,,
1633182992.77917981,,,,,,,,40720372,0,1500,1500,1000,1500,0,0,0,0,0,0,0,0,0,0,0,0,,,,,,,,
1633182993.01830387,40960,0.0010039443150162697,0.0007542317034676671,-0.12298718839883804,0.0002671489492058754,0.00027688403497450054,0.0002173733664676547,,,,,,,,,,,,,,,,,,,,,,,,,,
1633182993.02066398,,,,,,,,40960276,0,1500,1500,1000,1500,0,0,0,0,0,0,0,0,0,0,0,0,,,,,,,,
1633182993.27586794,41220,0.0010080081410706043,0.0007650150801055133,-0.12299352139234543,0.0002308569964952767,0.00012833537766709924,0.0001646407472435385,,,,,,,,,,,,,,,,,,,,,,,,,,
1633182993.28437591,,,,,,,,41220172,0,1500,1500,1000,1500,0,0,0,0,0,0,0,0,0,0,0,0,,,,,,,,
1633182993.51831985,41460,0.0010171984322369099,0.0007716438849456608,-0.12299614399671555,0.0002661595935933292,0.0002945860615000129,0.00017825118266046047,,,,,,,,,,,,,,,,,,,,,,,,,,
1633182993.52090788,,,,,,,,41460909,0,1500,1500,1000,1500,0,0,0,0,0,0,0,0,0,0,0,0,,,,,,,,
1633182993.77955604,41720,0.0010243502911180258,0.0007766459602862597,-0.12299517542123795,0.00030672247521579266,0.0002580241416580975,0.00025401375023648143,,,,,,,,,,,,,,,,,,,,,,,,,,
1633182993.78216004,,,,,,,,41720805,0,1500,1500,1000,1500,0,0,0,0,0,0,0,0,0,0,0,0,,,,,,,,
1633182994.01919198,41960,0.0010238360846415162,0.0007822846528142691,-0.12299411743879318,0.00015735987108200788,0.00023710954701527953,0.00024891889188438654,,,,,,,,,,,,,,,,,,,,,,,,,,
1633182994.02168798,,,,,,,,41960709,0,1500,1500,1000,1500,0,0,0,0,0,0,0,0,0,0,0,0,,,,,,,,
1633182994.27713585,42220,0.001038881135173142,0.0007923877565190196,-0.12299700826406479,0.0002636424032971263,0.0002535854873713106,0.00013634690549224615,,,,,,,,,,,,,,,,,,,,,,,,,,
1633182994.27966785,,,,,,,,42220605,0,1500,1500,1000,1500,0,0,0,0,0,0,0,0,0,0,0,0,,,,,,,,
1633182994.51637197,42460,0.001043119584210217,0.0007980974623933434,-0.12300006300210953,0.00027232777210883796,0.00012741697719320655,0.0002248054079245776,,,,,,,,,,,,,,,,,,,,,,,,,,
1633182994.51909184,,,,,,,,42460509,0,1500,1500,1000,1500,0,0,0,0,0,0,0,0,0,0,0,0,,,,,,,,
1633182994.77752399,42720,0.0010474686278030276,0.0008103608270175755,-0.12299750745296478,0.0002193081600125879,0.0002828185970429331,0.0002328700793441385,,,,,,,,,,,,,,,,,,,,,,,,,,
1633182994.78311586,,,,,,,,42720405,0,1500,1500,1000,1500,0,0,0,0,0,0,0,0,0,0,0,0,,,,,,,,
1633182995.01794386,42960,0.0010479263728484511,0.0008165666367858648,-0.12300267815589905,0.00029302143957465887,0.00019989183056168258,0.0002133414673153311,,,,,,,,,,,,,,,,,,,,,,,,,,
1633182995.02042389,,,,,,,,42960309,0,1500,1500,1000,1500,0,0,0,0,0,0,0,0,0,0,0,0,,,,,,,,
1633182995.27751994,43220,0.0010578491492196918,0.0008250083774328232,-0.12300891429185867,0.0002412325411569327,0.00017608917551115155,0.00017627025954425335,,,,,,,,,,,,,,,,,,,,,,,,,,
1633182995.28323603,,,,,,,,43220205,0,1500,1500,1000,1500,0,0,0,0,0,0,0,0,0,0,0,0,,,,,,,,
1633182995.51677203,43460,0.0010622106492519379,0.0008266532677225769,-0.12300616502761841,0.0002870735479518771,0.0002490128390491009,0.00022705757874064147,,,,,,,,,,,,,,,,,,,,,,,,,,
1633182995.51951599,,,,,,,,43460942,0,1500,1500,1000,1500,0,0,0,0,0,0,0,0,0,0,0,0,,,,,,,,
1633182995.77938390,43720,0.001065534888766706,0.0008327861432917416,-0.1230020523071289,0.0002981475554406643,0.0002646532957442105,0.00022391736274585128,,,,,,,,,,,,,,,,,,,,,,,,,,
1633182995.78183603,,,,,,,,43720838,0,1500,1500,1000,1500,0,0,0,0,0,0,0,0,0,0,0,0,,,,,,,,
1633182996.01931596,43960,0.0010720217833295465,0.0008388875867240131,-0.12300045788288116,0.00028070079861208797,0.00014762452337890863,0.00022135741892270744,,,,,,,,,,,,,,,,,,,,,,,,,,
1633182996.02178001,,,,,,,,43960742,0,1500,1500,1000,1500,0,0,0,0,0,0,0,0,0,0,0,0,,,,,,,,
1633182996.27539587,44220,0.001079023233614862,0.0008447087020613253,-0.12300031632184982,0.00017231132369488478,0.0002425451239105314,0.00018552725668996572,,,,,,,,,,,,,,,,,,,,,,,,,,
1633182996.27782798,,,,,,,,44220638,0,1500,1500,1000,1500,0,0,0,0,0,0,0,0,0,0,0,0,,,,,,,,
1633182996.51984787,44460,0.0010871263220906258,0.0008524208096787333,-0.12299693375825882,0.000359540106728673,0.0003443392051849514,0.0002162046730518341,,,,,,,,,,,,,,,,,,,,,,,,,,
1633182996.52228785,,,,,,,,44460542,0,1500,1500,1000,1500,0,0,0,0,0,0,0,0,0,0,0,0,,,,,,,,
1633182996.78066397,44720,0.0010928444098681211,0.0008543758885934949,-0.12299447506666183,0.00027816524379886687,0.00017719966126605868,0.00014705132343806326,,,,,,,,,,,,,,,,,,,,,,,,,,
1633182996.78312397,,,,,,,,44720438,0,1500,1500,1000,1500,0,0,0,0,0,0,0,0,0,0,0,0,,,,,,,,
1633182997.01822400,44960,0.0011052817571908236,0.0008578779525123537,-0.12299242615699768,0.0003038770519196987,0.00023007183335721493,0.00019192180479876697,,,,,,,,,,,,,,,,,,,,,,,,,,
1633182997.02070785,,,,,,,,44960342,0,1500,1500,1000,1500,0,0,0,0,0,0,0,0,0,0,0,0,,,,,,,,
1633182997.27716804,45220,0.0011088743340224028,0.0008622863097116351,-0.12299218028783798,0.00025716362870298326,0.00022046722006052732,0.00023637054255232215,,,,,,,,,,,,,,,,,,,,,,,,,,
1633182997.27960396,,,,,,,,45220238,0,1500,1500,1000,1500,0,0,0,0,0,0,0,0,0,0,0,0,,,,,,,,
1633182997.51551986,45460,0.0011107319733127952,0.0008643987821415067,-0.1229858472943306,0.0002750511630438268,0.00018736696802079678,0.00022072525462135673,,,,,,,,,,,,,,,,,,,,,,,,,,
1633182997.51816797,,,,,,,,45460975,0,1500,1500,1000,1500,0,0,0,0,0,0,0,0,0,0,0,0,,,,,,,,
1633182997.77880383,45720,0.001115439343266189,0.0008724317885935307,-0.12298396229743958,0.00032646654290147126,0.0002193845866713673,0.00028361118165776134,,,,,,,,,,,,,,,,,,,,,,,,,,
1633182997.78124785,,,,,,,,45720871,0,1500,1500,1000,1500,0,0,0,0,0,0,0,0,0,0,0,0,,,,,,,,
1633182998.01563191,45960,0.0011199894361197948,0.0008707483648322523,-0.12298408150672913,0.00027056768885813653,0.00017262989422306418,0.00024319285876117647,,,,,,,,,,,,,,,,,,,,,,,,,,
1633182998.02085996,,,,,,,,45960775,0,1500,1500,1000,1500,0,0,0,0,0,0,0,0,0,0,0,0,,,,,,,,
1633182998.27686000,46220,0.0011333057191222906,0.0008746536332182586,-0.12298346310853958,0.0003282243269495666,0.00015797247760929167,0.00018562417244538665,,,,,,,,,,,,,,,,,,,,,,,,,,
1633182998.27933192,,,,,,,,46220671,0,1500,1500,1000,1500,0,0,0,0,0,0,0,0,0,0,0,0,,,,,,,,
1633182998.51933193,46460,0.0011358855990692973,0.0008752520079724491,-0.12297862768173218,0.00032954360358417034,0.00021185926743783057,0.00022755787358619273,,,,,,,,,,,,,,,,,,,,,,,,,,
1633182998.52203584,,,,,,,,46460575,0,1500,1500,1000,1500,0,0,0,0,0,0,0,0,0,0,0,0,,,,,,,,
1633182998.77626801,46720,0.0011379413772374392,0.0008790572173893452,-0.12297581136226654,0.00026025145780295134,0.00025128512061201036,0.00014827187987975776,,,,,,,,,,,,,,,,,,,,,,,,,,
1633182998.78035188,,,,,,,,46720471,0,1500,1500,1000,1500,0,0,0,0,0,0,0,0,0,0,0,0,,,,,,,,
1633182999.01720381,46960,0.001140354317612946,0.0008837640634737909,-0.12296957522630692,0.0002218862355221063,0.00015274781617335975,0.0001919359201565385,,,,,,,,,,,,,,,,,,,,,,,,,,
1633182999.02707601,,,,,,,,46960375,0,1500,1500,1000,1500,0,0,0,0,0,0,0,0,0,0,0,0,,,,,,,,
1633182999.27650785,47220,0.0011407401179894805,0.0008918107487261295,-0.12296655774116516,0.00021297013154253364,0.00026542003615759313,0.0002858318912331015,,,,,,,,,,,,,,,,,,,,,,,,,,
1633182999.28089595,,,,,,,,47220271,0,1500,1500,1000,1500,0,0,0,0,0,0,0,0,0,0,0,0,,,,,,,,
1633182999.51499581,47460,0.0011487116571515799,0.000896395358722657,-0.12296471744775772,0.0002763586235232651,0.0001836642622947693,0.00025169472792185843,,,,,,,,,,,,,,,,,,,,,,,,,,
1633182999.51744390,,,,,,,,47460175,0,1500,1500,1000,1500,0,0,0,0,0,0,0,0,0,0,0,0,,,,,,,,
1633182999.78058386,47720,0.0011507029412314296,0.0009114845306612551,-0.1229574903845787,0.00021734830806963146,0.0002941265411209315,0.00023307037190534174,,,,,,,,,,,,,,,,,,,,,,,,,,
1633182999.78329182,,,,,,,,47720904,0,1500,1500,1000,1500,0,0,0,0,0,0,0,0,0,0,0,0,,,,,,,,
1633183000.01558805,47960,0.0011567267356440425,0.0009102929034270346,-0.12295717000961304,0.00026967385201714933,0.0001852572022471577,0.0002516941458452493,,,,,,,,,,,,,,,,,,,,,,,,,,
1633183000.01796389,,,,,,,,47960808,0,1500,1500,1000,1500,0,0,0,0,0,0,0,0,0,0,0,0,,,,,,,,
1633183000.27563190,48220,0.0011645732447504997,0.0009174313163384795,-0.1229572519659996,0.00027801081887446344,0.00020736054284498096,0.00017421055235899985,,,,,,,,,,,,,,,,,,,,,,,,,,
1633183000.27963591,,,,,,,,48220704,0,1500,1500,1000,1500,0,0,0,0,0,0,0,0,0,0,0,0,,,,,,,,
1633183000.51906395,48460,0.0011653152760118246,0.0009209751733578742,-0.12295109033584595,0.00022716663079336286,0.00024980056332424283,0.00027096245321445167,,,,,,,,,,,,,,,,,,,,,,,,,,
1633183000.52211595,,,,,,,,48460608,0,1500,1500,1000,1500,0,0,0,0,0,0,0,0,0,0,0,0,,,,,,,,
1633183000.77818799,48720,0.0011674606939777732,0.000923898711334914,-0.12293937057256699,0.0002537216350901872,0.0001947084383573383,0.0002956903772428632,,,,,,,,,,,,,,,,,,,,,,,,,,
1633183000.78797197,,,,,,,,48720504,0,1500,1500,1000,1500,0,0,0,0,0,0,0,0,0,0,0,0,,,,,,,,
1633183001.01779199,48960,0.001176576828584075,0.0009315416682511568,-0.12292768806219101,0.0003062728210352361,0.00020788205438293517,0.00034099226468242705,,,,,,,,,,,,,,,,,,,,,,,,,,
1633183001.02023196,,,,,,,,48960408,0,1500,1500,1000,1500,0,0,0,0,0,0,0,0,0,0,0,0,,,,,,,,
1633183001.27541995,49220,0.001179871498607099,0.0009371096384711564,-0.12292375415563583,0.00026630156207829714,0.00022802487364970148,0.00020291056716814637,,,,,,,,,,,,,,,,,,,,,,,,,,
1633183001.27780390,,,,,,,,49220304,0,1500,1500,1000,1500,0,0,0,0,0,0,0,0,0,0,0,0,,,,,,,,
1633183001.51954389,49460,0.001185548142530024,0.0009401435381732881,-0.12292090058326721,0.00035446297260932624,0.0002748020924627781,0.00023901622625999153,,,,,,,,,,,,,,,,,,,,,,,,,,
1633183001.52311993,,,,,,,,49460208,0,1500,1500,1000,1500,0,0,0,0,0,0,0,0,0,0,0,0,,,,,,,,
1633183001.77849197,49720,0.0011896757641807199,0.0009503081091679633,-0.12290898710489273,0.00027972389943897724,0.0002577452396508306,0.000297513761324808,,,,,,,,,,,,,,,,,,,,,,,,,,
1633183001.78106403,,,,,,,,49720937,0,1500,1500,1000,1500,0,0,0,0,0,0,0,0,0,0,0,0,,,,,,,,
1633183002.02001595,49960,0.0012007991317659616,0.00095554837025702,-0.12290318310260773,0.00031328084878623486,0.0002744203375186771,0.0001796770084183663,,,,,,,,,,,,,,,,,,,,,,,,,,
1633183002.02254796,,,,,,,,49960841,0,1500,1500,1000,1500,0,0,0,0,0,0,0,0,0,0,0,0,,,,,,,,
